Sno,District,Block,Village,Avg Rainfall,LAT,LONG,Depth,Elevation,May_decade_bgl,Aug_decade_bgl,Nov_decade_bgl,Jan_decade_bgl,May_bgl,Aug_bgl,Nov_bgl,Jan_bgl,May_rise,Aug_rise,Nov_rise,Jan_rise
W262107075060001,AJMER,Arain,DASUK,75.1,26.35,1.55,12.5,374,6.47,5.3,4.78,6.13,3.77,3.17,3.32,3.28,-0.05,0.82,0.62,0.65
W260745074554001,AJMER,Bhinai,Goclo,74.93,26.13,0.53,12.17,366,7.15,5.39,4.87,5,12.8,13.6,12.1,12.95,-0.77,5.86,6.26,4.9
W260230074424801,AJMER,Bhinai,Gopalpura,74.71,26.04,0.8,200,473,13.71,11.28,11.16,11.92,4.97,4.12,3.67,4.77,1.03,-0.24,0.1,1.04
W255600074120001,AJMER,Jawaja,JAWAJAI,74.2,25.93,0.6,17.3,490,8.81,5.57,4.42,6.61,0,0,8.65,8.6,,,3.88,3.5
W260130074393001,AJMER,Masuda,JHOPADIYAN,74.66,26.03,1.05,19.7,432,14.67,11.7,9.92,10.79,3.34,0.64,0.69,1.49,-3.19,-5.28,-2.63,-2.23
W262400074520001,AJMER,Srinagar,KANPURAI,74.87,26.4,0.4,10,409,6.1,4.53,4.27,4.56,6.42,1.52,2.07,2.22,0.17,-3.18,-1.84,-2.14
W261400074293001,AJMER,Peesangan,LAMANA,74.49,26.23,0.11,20,452,12.04,10.38,10.14,10.02,8.35,7.8,8.25,8.45,1.88,2.5,3.47,2.32
W255950074350001,AJMER,Masuda,LUDIYANA,74.58,26,0.67,15,413,12.32,10.81,9.97,10.07,6.57,5.27,5.87,6.57,-0.58,-0.12,1,1.57
W260712074221201,AJMER,Jawaja,MAIDAYABADAYA,74.37,26.12,0.33,14.57,486,5,2.94,3.1,3.57,10.4,10.4,9.4,9.7,-3.31,-0.88,-1.76,-2.22
W261637074302901,AJMER,Peesangan,Mangaliyawas,74.51,26.28,0,22.1,437.57,13.77,11.8,10.55,10.9,9.25,7.2,8.1,8.4,0.44,1.63,3.68,1.79
W261830074554001,AJMER,Srinagar,Morajhari,74.93,26.31,1,150,382,8.51,5.38,5.65,5.2,17.15,10.45,11.25,11.55,2.48,-1.25,1.33,0.76
W255633075105701,AJMER,Kekri,Nai Khera,75.18,25.94,0.75,18,345,7.55,6.95,6.82,10.42,3.9,3.05,2.45,2.6,-2.2,-1.48,-1.82,-1.96
W260300074170001,AJMER,Jawaja,NARBADKHERA,74.28,26.05,1,29,463,13.54,9.18,8.72,10.1,16.99,11.49,11.84,11.99,4.95,1.11,1.7,1.97
W261712074442501,AJMER,Peesangan,NASIRABAD,74.74,26.29,0.5,20.87,425,4.32,2.45,1.67,1.83,0,0,13.23,13.53,2.31,1.24,3.26,3.46
W261558074370301,AJMER,Peesangan,Pachmata,74.62,26.27,1,100,460,13.7,12.05,11.1,12.23,5.82,4.17,4.77,5.17,0.83,1.23,1.67,1.6
W260517074235701,AJMER,Jawaja,PAKHRIAWAS,74.4,26.09,0,16.55,527,11.35,9.85,6.95,9.7,16.9,12,13.7,13.6,3.13,0.2,3.15,2.7
W255800074275101,AJMER,Masuda,Ramgarh2,74.46,25.97,1,150,148,27.77,21.04,23.9,24.76,5.9,5.3,4.3,4.6,-2.61,-0.08,-1.35,-0.6
W261600074513001,AJMER,Srinagar,RAMSAR2,74.86,26.27,1.2,14.1,395,7.44,4.79,4.55,4.9,7.95,5.55,4.6,5.25,0.4,-1.4,-2.22,-5.17
W255440075023001,AJMER,Arain,SANPLA,75.04,25.91,0.7,10.35,359,6.54,4.03,4.28,4.47,14.65,10.9,12.1,12.5,1.11,1.72,3.38,2.4
W260300075000001,AJMER,Arain,SARWAD,75,26.05,0,7.5,364,3.35,2.36,2.75,3.07,3.15,2.64,4,4.5,-1.17,0.19,2.33,2.67
W262147074370001,AJMER,Peesangan,TABIJI,74.62,26.36,0.29,22.36,457,7.96,5.33,5.03,5.52,13.6,11,14.1,14.2,-0.1,-1.05,3,1.97
W255300074090001,AJMER,Jawaja,TARAGARH,74.15,25.88,0.9,19.29,524,4.25,1.66,1.42,1.47,13.35,12.2,12.3,12.55,2,2.35,5.36,2.85
W274852076272601,ALWAR,Bansur,Alanpur,76.46,27.81,1,93.6,331,35.57,34.6,35.54,36.98,5.9,3.3,4.1,4.42,-1.54,-1.49,-0.45,-0.48
W272740076235601,ALWAR,Thanagaji,Bairawas,76.4,27.46,0.5,200,305,21.42,20.18,18.83,20.33,21.4,21.25,21.95,22.65,-0.02,1.08,3.13,2.33
W274130076212001,ALWAR,Bansur,BANSUR,76.36,27.69,1.05,65.54,366,29.99,29.41,29.01,29.8,38.25,38.7,40.05,39.25,8.26,9.29,11.04,9.45
W272630076313001,ALWAR,Umrain,Baranl,76.53,27.44,0.65,20,277,13.67,12.32,12.5,13.38,14.15,10.95,14.05,13.35,0.48,-1.37,1.55,-0.03
W275630076183001,ALWAR,Behror,Bhituda,76.31,27.94,1,100.2,311,78.9,80.5,80.66,82.19,0,95.1,95.6,95,,14.6,14.94,12.81
W275159076474401,ALWAR,Kishangarh Bas,BOLNI,76.8,27.87,1,142.04,258,23.55,22.88,23.04,23.29,25.3,24.05,24.75,25.15,1.75,1.17,1.71,1.86
W271615076331301,ALWAR,Rajgarh,Dharampura,76.55,27.27,0.5,174,239,29.5,27.03,27.15,31.16,40.35,34.9,34.65,35.57,10.86,7.88,7.5,4.42
W271418076331801,ALWAR,Rajgarh,Doulatpura,76.56,27.24,1.1,80,305,27.35,25.49,25.93,25.79,32.88,25.92,24.3,24.8,5.53,0.43,-1.63,-0.99
W271230076473001,ALWAR,Reni,GADI SWAIRAM,76.79,27.21,0.45,32.25,269,22.16,16.35,16.84,16.97,17.12,9.4,9.05,10.28,-5.04,-6.95,-7.79,-6.69
W274700076301501,ALWAR,Mandawar,GANGWALI DHANI,76.5,27.78,1,74.08,339,49.21,48.62,49.21,50.93,60.4,58.15,57.8,56.1,11.19,9.53,8.59,5.17
W273035076595801,ALWAR,Lachhmangarh,Govindgarh - Pz,77,27.51,1,50,217,26.51,25.84,28.58,27.24,32.76,32.5,32.55,33.63,6.25,6.66,3.97,6.39
W275200076370002,ALWAR,Kotkasim,HARSAULI,76.62,27.87,1,86.64,285,29.44,27.5,31.84,28.24,0,55.75,56.3,56.6,,28.25,24.46,28.36
W273800076200001,ALWAR,Bansur,Holawas,76.33,27.63,1,150,383,33.49,32.86,33.49,33.91,48.3,47.25,47.65,47.1,14.81,14.4,14.16,13.19
W275857076243001,ALWAR,Neemrana,Janak Singh Pura,76.41,27.98,1,53.9,533,41.81,39.76,41.61,41.38,46.9,46.25,46.9,47,5.09,6.49,5.29,5.62
W275934076231501,ALWAR,Neemrana,Japaneese Zone,76.39,27.99,1,107.7,334,51.73,51.13,53.48,56.97,62,62.6,63.2,64.1,10.27,11.47,9.72,7.13
W275548076292401,ALWAR,Mandawar,JASAI,76.49,27.93,1,99,295,33.34,32.19,34.5,35.57,48.1,0,0,0,14.76,,,
W271515076495601,ALWAR,Lachhmangarh,JHALADALA,76.83,27.25,0.65,45,259,33.5,33.44,32.98,32.77,32.99,31.17,31.55,33.25,-0.51,-2.27,-1.43,0.48
W271843076242801,ALWAR,Thanagazi,Kalighati Sariska,76.41,27.31,1.5,30,460,12.17,7.46,7.73,8.29,9.26,6.95,6.9,7.47,-2.91,-0.51,-0.82,-0.82
W280345076214501,ALWAR,Neemrana,KANHAWAS,76.36,28.06,0.99,129,305,60.16,57.79,59.19,59.71,57.21,74.16,74.46,74.91,-2.95,16.37,15.27,15.2
W274912076440001,ALWAR,Kishangarh Bas,KISHANGARH BASI,76.73,27.82,0.78,76.65,308,41.24,41.66,40.69,41.66,58.72,58.22,58.82,57.92,17.48,16.56,18.13,16.26
W280155076425501,ALWAR,Kotkasim,Kotkasim,76.72,28.03,1,60,261,29.19,28.29,30.55,29.66,32,27.1,28.2,29.1,2.81,-1.19,-2.35,-0.56
W271213076171001,ALWAR,Thanagaji,KUNDAL,76.29,27.2,0.5,200,351,28.45,26.72,27.7,27.64,0,29.34,31.27,31.69,,2.62,3.57,4.05
W272100076513501,ALWAR,Lachhmangarh,LACHMANGARH,76.86,27.35,0.72,14,228,8.68,7.78,7.67,8.38,12.38,12.21,11.98,12.38,3.7,4.43,4.31,4
W275950076190001,ALWAR,Thanagazi,Majri Khurd,76.32,28,1,84.6,388,27.87,27.5,28.57,28.65,29,29.1,29.75,29.15,1.13,1.6,1.18,0.5
W271555076285601,ALWAR,Rajgarh,NANDU,76.48,27.27,0.5,200,305,22.6,20.93,21.65,21.41,0,0,8.88,9.35,-12.98,-12.78,-12.77,-12.06
W275956076231501,ALWAR,Neemrana,Neemrana,76.39,28,1,100,308,54.62,55.38,59.27,52.14,0,61.5,60.9,62.2,6.23,6.12,1.63,10.06
W275000076560001,ALWAR,Tijara,NIMLI,76.93,27.83,0.35,25,304,11.79,10.81,13.08,14.06,11.45,19.75,19.9,20.55,-0.34,8.94,6.82,6.49
W273900076520001,ALWAR,Ramgarh,Nogawa,76.87,27.65,1,150,224,23.7,24.17,22.71,22.55,0,33,33.3,32.8,,8.83,10.59,10.26
W275800076430002,ALWAR,Kotkasim,PUR1,76.72,27.97,0.15,77,262,21.47,22.24,20.83,21.32,39.65,27.85,27.95,28.55,18.18,5.61,7.12,7.23
W273500076483502,ALWAR,Ramgarh,RAMGARH PZ,76.81,27.58,1,76.5,236,24.52,23.6,24.02,25.38,31.2,30.75,30.5,31.15,6.68,7.15,6.48,5.77
W273537076484901,ALWAR,Ramgarh,RAMGARHI,76.81,27.59,1.33,22,236,14.79,13.8,15.61,14.28,0,18.77,0,0,4.95,4.97,4.92,4.87
W275110076153201,ALWAR,Behror,Sota Nala,76.26,27.85,1,96,330,43.2,42.89,45.81,46.21,27.2,49.25,49.4,49.9,-16,6.36,3.6,3.69
W280636076500601,ALWAR,Tijara,TAPUKARA,76.84,28.11,1.14,158.42,282,26.9,26.26,25.97,26.51,31.66,31.06,30.76,30.91,4.76,4.8,4.79,4.4
W271415076240001,ALWAR,Rajgarh,TEHLA,76.4,27.24,2.8,15,366,6.99,4.74,4.7,5.28,12.15,9.2,6.95,7.25,5.16,4.46,2.25,1.97
W275559076515201,ALWAR,Tijara,TIJARAI,76.86,27.93,1.03,132.4,218,30.61,29.8,30.82,30.97,25.77,37.93,38.17,39.07,-4.84,8.13,7.35,8.1
W232945074060001,BANSWARA,Garhi,ARTHUNA,74.1,23.5,1.2,12.64,154,7.65,2.51,4.05,4.39,7.8,5.5,6.1,6.9,0.15,3,2.05,2.51
W233000074060001,BANSWARA,Garhi,Arthuna l,74.1,23.5,1,150,154,9.15,2.47,4.13,4.22,9.3,6.2,7.2,7.7,0.15,3.73,3.07,3.49
W232415074160001,BANSWARA,Bagidora,Bagidora,74.27,23.4,0.67,17.68,213,8.1,2.07,2.16,3.7,14.43,2.83,4.43,5.68,6.33,0.76,2.27,1.98
W233301074410901,BANSWARA,Chhoti Sarwan,Bagtalav,74.69,23.55,1,15,346,7.63,1.96,2.86,4.05,11.3,8.1,5.1,7.1,3.67,6.14,2.24,3.05
W232516074173101,BANSWARA,Bagidora,Bansla,74.29,23.42,1,142,199,6.45,3.57,4.37,4.64,6.3,5,6.1,6.7,-0.15,1.43,1.73,2.06
W233200074270001,BANSWARA,Banswara,Banswaral,74.45,23.53,0.9,10,242,7.23,4.34,4.87,5.4,6,4.2,4.6,5.6,-1.23,-0.14,-0.27,0.2
W232500074210101,BANSWARA,Bagidora,Barodiya,74.35,23.42,0.6,11.15,226,5.22,1.65,2.35,2.27,5.5,3.4,4.3,5.5,0.28,1.75,1.95,3.23
W234255074154601,BANSWARA,Garhi,Bhimpur,74.26,23.72,1,20,260,9.72,3.41,3.46,3.93,10.1,6.2,7,4.3,0.38,2.79,3.54,0.37
W234007074302001,BANSWARA,Ghatol,Bhoongra,74.51,23.67,0.55,10.81,234,7.93,3.28,4.15,4.86,0,5.85,6.45,3.25,2.59,2.57,2.3,-1.61
W231330074183601,BANSWARA,Sajjangarh,Bhura Kua,74.31,23.23,0,10.5,250,7.49,1.93,2.59,3.02,8.4,6.7,5.1,6.7,0.91,4.77,2.51,3.68
W231937074214201,BANSWARA,Sajjangarh,Bilari,74.36,23.33,1,15,241,6.25,0.98,2.06,3.11,11.1,0.3,1.1,2.1,4.85,-0.68,-0.96,-1.01
W233430074070001,BANSWARA,Garhi,Borigoan,74.12,23.58,1,150,150,7.91,2.2,3.83,3.69,8.8,7.7,6,6.4,0.89,5.5,2.17,2.71
W233033074230401,BANSWARA,Banswara,Borwat,74.38,23.51,1,40,197,4.79,2,2.59,2.52,5.1,3.2,3.9,4.5,0.32,1.2,1.31,1.98
W231846074224701,BANSWARA,Kushalgarh,Charakni,74.38,23.31,1,8.2,241,8,1.79,3.01,4.53,10.3,5.31,3.3,4.4,2.3,3.52,0.29,-0.13
W232600074033101,BANSWARA,Anandpuri,CHHAJA,74.06,23.43,1,150,134,13.82,1.98,5.08,8.06,12.4,8.1,2.5,3.4,-1.42,6.12,-2.58,-4.66
W231800074190001,BANSWARA,Sajjangarh,Chhinch,74.32,23.3,1,150,238,1.89,0.43,1.27,0.87,2.1,0,0,3.5,0.21,2.4,2.7,2.63
W231311074350001,BANSWARA,Kushalgarh,Chhoti Sarwa,74.58,23.22,1,150,340,10.22,1.03,2.75,8.48,3.4,2.1,2.9,4.1,-6.82,1.08,0.16,-4.38
W233033074223901,BANSWARA,Banswara,Chiriyawasa,74.38,23.51,1,11.5,197,5.38,1.76,2.58,2.36,4.5,3,2.4,1.9,-0.88,1.24,-0.18,-0.46
W231020074172501,BANSWARA,Sajjangarh,CHOTA DUNGRA,74.29,23.17,0.07,9.8,258,7.47,1.82,3.16,3.73,6.03,4.73,5.23,6.63,-1.44,2.91,2.07,2.9
W233327074360401,BANSWARA,Chhoti Sarwan,Danakshari,74.6,23.56,1,10,289,5.57,1.68,2.49,4.08,3.5,2.1,3.2,4.9,-2.07,0.42,0.71,0.82
W233100074430001,BANSWARA,Chhoti Sarwan,Danpur,74.72,23.52,0.45,12,374,7.7,1.73,3.14,4.36,0.65,0.55,1.65,1.95,-7.05,-1.18,-1.49,-2.41
W235150074273001,BANSWARA,Ghatol,DUNGARIA,74.46,23.86,1.5,17,195,11.05,4.05,5.81,5.32,8.6,10,10.8,5.6,-2.45,5.95,4.99,0.28
W234600074151001,BANSWARA,Ghatol,GANORA,74.25,23.77,1.56,9.74,170,3.79,0.86,1.83,1.55,7.44,5.24,0.84,0.09,3.65,4.38,-0.99,-1.46
W233524074103001,BANSWARA,Garhi,GARHI PARTAPURA,74.18,23.59,1,17.15,152,11.53,5.34,5.69,6.04,4.3,3,3.6,5.1,-7.23,-2.34,-2.09,-0.94
W231235074285301,BANSWARA,Kushalgarh,Kalakhet Pz,74.48,23.21,1,100,311,4.38,1.8,3,3.7,4.1,2.8,1,2.1,-0.28,1,-2,-1.6
W233210074370001,BANSWARA,Chhoti Sarwan,Katumbi Dw,74.62,23.54,0.8,10,343,6.48,1.42,2.53,4.38,0,0,0,5.8,1.42,1.42,1.42,1.42
W233700074303001,BANSWARA,Banswara,Khera Dahar,74.51,23.62,0,11,249,9.75,2.65,3.3,4.56,0,1.2,2,1.5,-1.54,-1.45,-1.3,-3.06
W232716074043001,BANSWARA,Garhi,Kotral,74.08,23.45,1,150,162,11.52,3.2,4.14,6.52,9.8,8.3,8.9,9.7,-1.72,5.1,4.76,3.18
W231200074270002,BANSWARA,Kushalgarh,KUSALGARH,74.45,23.2,1.23,8.52,297,5.01,0.94,1.96,2.35,3.88,2.77,3.97,5.57,-1.13,1.83,2.01,3.22
W231200074270701,BANSWARA,Kushalgarh,Kusalgarh_Pz,74.45,23.2,1,150,300,6.67,1.91,3.01,4.02,6.2,4.1,5.5,5.8,-0.47,2.19,2.49,1.78
W235340074263501,BANSWARA,Ghatol,NARWALI,74.44,23.89,0.65,6,184,5.52,1.27,2.46,2.87,5.85,2.15,2.55,3.55,0.33,0.88,0.09,0.68
W233210074311001,BANSWARA,Banswara,Padla Barora,74.52,23.54,0.9,12.5,263,7.74,1.13,1.98,3.68,6.9,4.2,2.1,11.4,-0.84,3.07,0.12,7.72
W233053074101201,BANSWARA,Garhi,Raiyana,74.17,23.51,0,8,175.925,5.71,3.55,4.36,4.69,3.61,5.4,5.5,5.8,-2.1,1.85,1.14,1.11
W232206074164501,BANSWARA,Bagidora,RAKHO,74.28,23.37,0.81,13.63,222,5.38,1.23,1.69,2.55,3.69,1.79,2.29,2.69,-1.69,0.56,0.6,0.15
W234700074290401,BANSWARA,Ghatol,Sadri,74.48,23.78,0.85,10,239,5.23,0.59,1.86,3.19,0,3.95,2.15,2.55,-1.79,3.36,0.29,-0.64
W231552074255501,BANSWARA,Kushalgarh,Saran,74.43,23.26,1,10,291,5.26,1.05,1.59,2.38,3.7,1.5,2.6,2.8,-1.56,0.45,1.01,0.42
W233922074232301,BANSWARA,Ghatol,SENWASA,74.39,23.66,0.73,11.9,195,5.91,2.92,4.18,4.47,6.37,4.57,5.47,3.47,0.46,1.65,1.29,-1
W232630074220801,BANSWARA,Banswara,Surwania,74.37,23.44,0,7.5,214.382,5.39,2.42,2.35,2.99,2.7,1.9,2.1,2.5,-2.69,-0.52,-0.25,-0.49
W233700074170001,BANSWARA,Garhi,Wajwana,74.28,23.62,1,150,167,8.85,2.2,3.07,5.51,7.8,4.4,5,5.7,-1.05,2.2,1.93,0.19
W250930076180001,BARAN,Anta,ANTAI,76.3,25.16,0.44,8,249,6.61,2.28,3.64,3.77,4.66,1.81,3.41,3.53,-1.95,-0.47,-0.23,-0.24
W245127076394001,BARAN,Atru,ATRUI,76.66,24.86,0.81,11.12,284,5.81,0.89,3.52,4.66,6.39,0.11,4.19,4.24,0.58,-0.78,0.67,-0.42
W245930076283001,BARAN,Baran,BAMLA,76.48,24.99,0.9,10.87,276,5.93,3.06,4.33,4.98,6,1.04,4.2,4.01,0.07,-2.02,-0.13,-0.97
W250500076420001,BARAN,Kishanganj,Banthoni,76.7,25.08,1,150,276,8.71,2.15,5.5,6.16,11.1,1.84,6.58,4.1,2.39,-0.31,1.08,-2.06
W250600076311201,BARAN,Baran,Baran,76.52,25.1,1,20,259,8.27,2.63,2.97,4.66,6.5,0.54,0.95,0.35,-1.77,-2.09,-2.02,-4.31
W250529076473701,BARAN,Kishanganj,BHANWARGARH,76.79,25.09,0.76,13.7,321,2.51,0.9,2.19,1.25,4.44,0.21,1.22,0.94,1.93,-0.69,-0.97,-0.31
W243539076435601,BARAN,Chhipabarod,CHHIPA BAROD,76.73,24.59,0.92,15,334,10.29,4.33,8.46,9.32,10.98,1.88,8.65,8.91,0.69,-2.45,0.19,-0.41
W242610076420001,BARAN,Chhipabarod,HARNAUDA,76.7,24.44,0.58,11,330,8.9,3.05,5.47,7.64,10.12,2.02,6.27,7.02,1.22,-1.03,0.8,-0.62
W251230077213001,BARAN,Shahabad,Kasba Thana,77.36,25.21,0.3,10.9,392,6.34,2.99,4.58,5.08,6.6,2.3,4.7,4.8,0.26,-0.69,0.12,-0.28
W250800076540001,BARAN,Shahabad,KELWARA1,76.9,25.13,0.8,5,363,3.24,0.9,2.23,3.15,3.8,0,2.2,1.96,0.56,-0.69,-0.03,-1.19
W250630076390001,BARAN,Kishanganj,KISHANGANJI,76.65,25.11,0.89,14.5,257,10.23,1.57,4.42,8.79,12.51,0.74,3.21,2.31,2.28,-0.83,-1.21,-6.48
W251116077062001,BARAN,Shahabad,MAMONI,77.11,25.19,0.5,11,475,8.85,3.24,4.26,6.32,9.92,10.12,6.02,2.52,1.07,6.88,1.76,-3.8
W251930076304501,BARAN,Anta,MANGROL,76.51,25.33,0.57,8.81,238,5.68,2.95,4.16,3.92,6.33,2.53,4.23,4.23,0.65,-0.42,0.07,0.31
W251548077154801,BARAN,Shahabad,PAJAL TORI,77.26,25.26,0.5,13.2,315,9.71,2.04,4.26,5.98,11.6,1.9,6.49,6.55,1.89,-0.14,2.23,0.57
W242900076360001,BARAN,Chhipabarod,SARTHAL,76.6,24.48,0.3,8,311,4.45,1.48,2.44,3.21,5.3,1.5,1.5,1.6,0.85,0.02,-0.94,-1.61
W251500077080001,BARAN,Shahabad,SHAHABAD1,77.13,25.25,1.07,7.3,470,4.67,1.59,2.92,3.63,5.03,1.59,2.98,3.43,0.36,0,0.06,-0.2
W251801076194501,BARAN,Atru,UDPURIA,76.33,25.3,0.65,6.87,240,5.24,2.09,3.38,3.51,4.55,1.9,4.25,4.2,-0.69,-0.19,0.87,0.7
W252800071580301,BARMER,Sindhari,ARNIYALI,71.97,25.47,0.75,64,90,36.1,34.59,34.2,40.66,40.6,41.75,41.95,41.95,4.5,7.16,7.75,1.29
W255136071451501,BARMER,Baetu,BAITUI,71.75,25.86,1.38,41.52,156,34.3,34.13,33.31,34.39,32.52,32.72,32.72,32.87,-1.78,-1.41,-0.59,-1.52
W255455070523001,BARMER,Sheo,BALEWA,70.88,25.92,2.1,33.7,216,19.27,19.66,18.51,19.15,22,21.8,21.8,22.2,2.74,2.14,3.29,3.05
W255015072122001,BARMER,Balotra,Balotra,72.21,25.84,0,60,110.72,34.7,33.78,34.08,32.9,33.9,35.1,34.7,35.1,-0.8,1.33,0.62,2.2
W254410071235001,BARMER,Barmer,BARMERI,71.4,25.74,2.25,40,187,20.34,19,19.36,18.7,17.35,15.3,15.25,15.75,-2.99,-3.7,-4.11,-2.95
W254317070584301,BARMER,Barmer,Bhachbhar,70.98,25.72,1.7,27,201,21.01,19.98,20.56,21.23,22.25,22.8,0,22.1,1.24,2.82,2.82,0.87
W255300071210001,BARMER,Baetu,Bhadkal,71.35,25.88,1.1,156,193,84.33,84.4,84.5,84.74,85.9,86.3,86.7,86,1.58,1.9,2.2,1.26
W255400071210001,BARMER,Baetu,Bhotia,71.35,25.9,1,200,193,78.46,78.74,78.69,78.97,80.05,80.5,80.8,81.1,1.59,1.76,2.11,2.13
W255315071143001,BARMER,Barmer,BISALA,71.24,25.89,1.35,20,228,14.47,14.31,13.95,13.88,13.75,13.35,13.35,13.25,-0.72,-0.96,-0.6,-0.63
W261429071164201,BARMER,Sheo,BISUKALAN,71.28,26.24,0,37.3,240,34.45,34.26,34.3,34.36,34.9,34.5,0,0,0.45,0.24,-0.6,-0.63
W252830071043001,BARMER,Chohtan,Chauhtan DW,71.08,25.48,1.5,250,172,49.59,48.28,44.79,47.95,0,51.1,49.6,51.4,0.65,2.82,4.81,3.45
W254634071094801,BARMER,Barmer,DERASAR,71.16,25.78,1.6,26,72,14.09,12.42,11.9,13.82,16.5,17.7,17.6,16.3,2.41,5.28,5.7,2.48
W260400072400001,BARMER,Balotra,DOLI,72.67,26.07,0.5,32,157,6.56,5.87,4.63,5.73,9.4,0,0,0,2.84,6.7,8.4,2.49
W254425070382001,BARMER,Sheo,GADRA ROAD,70.64,25.74,1.45,107.34,149,96.7,93.37,98.47,98.68,98.05,100.95,101.05,101.15,1.35,7.58,2.58,2.47
W260105070493801,BARMER,Sheo,Jansingh Ki Beri,70.83,26.02,1.78,16.22,254,6.74,6.29,6.66,6.49,8.72,8.77,7.96,8.72,1.98,2.48,1.3,2.24
W254057071123901,BARMER,Barmer,JASAI,71.21,25.68,1.41,25,232,18.07,17.58,17.7,18.35,23.34,22.04,20.69,21.04,5.27,4.46,3,2.69
W260939071343001,BARMER,Baetu,Jhak Pz,71.58,26.16,1,120,228,55.3,57.87,56.02,55.78,57.8,58.5,0,60.9,2.5,0.63,0.54,5.12
W254650072351501,BARMER,Siwana,KARMAWAS,72.59,25.78,1,58,139,5.96,5.6,5.76,5.51,4.8,4.95,5.1,5,-1.16,-0.65,-0.66,-0.51
W261535071362001,BARMER,Sheo,KASHMIR,71.61,26.26,0.51,250,235,58.52,56.96,58.1,58.89,66.79,0,0,0,8.27,1.67,-0.76,-0.67
W250930071270001,BARMER,Dhorimanna,KATERLA,71.45,25.16,0.47,250,74,15.28,14.74,15.13,15.74,16.22,16.32,16.37,16.27,0.94,1.58,1.24,0.53
W255444070275501,BARMER,Sheo,KHARIN,70.47,25.91,0.8,50,233,43.47,45.02,43.56,44.62,0,45.8,45,45.9,0.87,0.78,1.44,1.28
W254730071344501,BARMER,Baetu,MATASAR,71.58,25.79,1.1,48.9,153,35.11,34.57,33.83,34.45,34.4,34.55,34.5,34.6,-0.71,-0.02,0.67,0.15
W255818071084201,BARMER,Barmer,NAND,71.15,25.97,1.6,23.86,247,13.26,9.34,9.5,11.92,17.7,18,18.5,19.5,4.44,8.66,9.01,7.58
W253612071170001,BARMER,Barmer,NIMRI ( RADEWA ),71.28,25.6,1.87,35.2,190,9.81,8.78,9.01,9.56,0,0,12.23,12.63,,,3.22,3.07
W255938071452501,BARMER,Baetu,PANAVADA,71.76,25.99,1.49,38.12,167,29.23,28.13,28.93,28.89,28.86,29.16,28.91,29.01,-0.37,1.03,-0.02,0.12
W255930070100001,BARMER,Sheo,PANCHLA,70.17,25.99,1.5,53.45,65,41.58,40.94,40.71,40.88,40.3,40,39.9,39.4,-1.28,-0.94,-0.81,-1.48
W261258072373401,BARMER,Balotra,PARALIA DHAMAT,72.63,26.22,0.5,200,166,11.08,11.49,11.45,11.11,11.8,11.97,11.85,11.2,0.72,0.48,0.4,0.09
W250720071352001,BARMER,Dhorimanna,PIPARLI GAON,71.59,25.12,1,58,50,7.75,7.21,7.34,8.36,7.8,0,0,7.8,0.06,,,-0.56
W254101071371501,BARMER,Sindhari,RAWATSARI,71.62,25.68,1,144.4,148,65.62,64.05,65.7,66.52,0,62.9,61.95,62.35,,-1.14,-3.75,-4.17
W255045070592301,BARMER,Sheo,REDANA,70.99,25.85,1.58,26.55,221,17.2,15.42,14.55,15.47,0,22.12,20.52,24.12,,6.7,5.98,8.65
W260327071300901,BARMER,Baetu,Rewali,71.5,26.06,1,130,221,93.13,94,93.07,93.6,96.5,97.2,96.35,97.3,3.37,3.2,3.28,3.7
W252847071240001,BARMER,Barmer,SANAWARA,71.4,25.48,1.69,51.31,123,44.42,44.88,44.62,44.64,45.56,45.81,45.51,45.56,1.14,0.93,0.89,0.93
W253509071140001,BARMER,Barmer,SANLOR,71.23,25.59,1.7,32,198,27.66,28,27.43,27.71,28.6,28.7,28.7,28.8,0.94,0.7,1.27,1.09
W254215071244501,BARMER,Barmer,Sansiyan,71.41,25.7,1.55,74.64,181,22.13,21.67,20.83,20.92,22.05,25.35,27.25,24.15,-0.08,3.68,6.42,3.23
W255951071580301,BARMER,Baetu,Santara,71.97,26,0,7.8,141.83,4.8,3.87,4.77,4.27,4.2,4.45,3.25,3.4,-0.6,0.58,-1.52,-0.87
W244912071093001,BARMER,Chohtan,Sata Pz,71.16,24.82,1,250,31,6.03,5.75,6.11,6.45,7.3,7.45,7.3,7.6,1.27,1.7,1.2,1.16 TH
W260901071482401,BARMER,Baetu,SAUPADAMSINGH,71.81,26.15,1.49,32.06,213,21.51,21.39,20.89,21.59,21.71,22.31,22.07,22.41,0.2,0.92,1.18,0.82
W254518071050001,BARMER,Barmer,SIHANI,71.23,25.59,1.05,25.41,280,20.4,15.41,16.38,16.79,0,24.05,22.45,14.65,,8.64,,
W253400071540001,BARMER,Sindhari,SINDARI,71.9,25.57,1,50,88,15.7,15.83,15.57,15.73,16.13,16.2,16.2,16.2,0.43,0.38,,
W252015070515501,BARMER,Chohtan,SIYAGA TALA,70.87,25.34,1.56,74,166,64.51,64.17,66.11,65.44,66.04,66.29,63.34,63.19,1.53,2.12,,
W254830071022001,BARMER,Barmer,"SUTHARON KI
 DHANI",71.04,25.81,1.3,28.2,229,16.33,14.57,13.98,14.67,20.4,0,0,20.5,4.08,,,
W245010071130001,BARMER,Chohtan,TARLA,71.22,24.84,0.5,6.98,43,4.35,4.18,4.17,4.16,4.3,4,4.5,4.4,-0.05,-0.18,,
W260300072213001,BARMER,Balotra,THOB,72.36,26.05,1.26,28.04,157,19.47,14.13,13.01,15.76,23.54,16.81,15.64,16.84,4.08,2.68,,
W261213072291901,BARMER,Balotra,Thoombli,72.49,26.2,0,28.2,172.74,24.25,24.2,23.89,23.45,26.8,23.68,23.35,22.6,2.55,-0.52,,
W265416077223401,BHARATPUR,Bayana,BANDH BARETA,77.38,26.9,0.15,10,201,3.47,2.79,3.14,2.86,6.21,3.27,2.89,3.71,2.74,0.48,,
W271330077053001,BHARATPUR,Nadbai,BAONLI CHAN,77.09,27.23,1,100,213,31.8,30.96,31.09,31.77,42.87,36.25,36.4,36.9,11.07,5.29,,
W265750077232401,BHARATPUR,Bayana,BAWARI BARODA,77.39,26.96,0.9,10,192,6.92,5.99,6.26,6.38,6.06,7.66,7.85,8.05,-0.86,1.67,,
W265820077150501,BHARATPUR,Bayana,Bhagori DW,77.25,26.97,0.5,20,199,14.3,11.76,12.38,13.26,17.85,12.5,12.65,15,3.55,0.74,,
W271300077300001,BHARATPUR,Sewar,Bharatpurl,77.5,27.22,0.76,8.39,179,3.41,2.72,3.38,3.14,1.05,0.74,0.74,0.84,-2.36,-1.98,,
W271100077400002,BHARATPUR,Sewar,CHIKSANA,77.67,27.18,0.26,22,179,,18.14,18.64,18.63,19.86,18.04,18.24,18.64,,-0.1,,
W270700077040002,BHARATPUR,Weir,Chokarwada,77.07,27.12,1,91,216,49.58,47.74,49.31,51.8,54.75,54.19,55.76,54.8,5.17,6.45,,
W265945077293002,BHARATPUR,Roopwas,DAHINAGAON,77.49,27,0.82,17,181,11.23,11.35,11.06,10.77,12.43,10.48,10.78,11.23,1.2,-0.87,,
W272848077190001,BHARATPUR,Deeg,Deeg,77.32,27.48,11,129.2,181,3.62,2.64,2.42,3.9,7.98,0,0,1.35,4.36,,,
W273917077034801,BHARATPUR,Nagar,Gopalgarh,77.06,27.65,1.1,12.3,198,9.17,8.57,9.04,9.16,11.5,10.46,10.5,11,2.33,1.89,,
W270652077090001,BHARATPUR,Weir,HALENA,77.15,27.11,1,52.64,207,39.92,35.41,35.79,39.47,39.8,37.6,37.68,40.22,-0.12,2.19,,
W273130077043001,BHARATPUR,Nagar,JAISARI,77.08,27.53,1,121.65,206,9.55,9.65,9.54,9.76,14.65,14.25,14.15,14.9,5.1,4.6,,
W264605077255201,BHARATPUR,Bayana,Jaisora,77.43,26.77,1,60,219,9.71,8.07,10.95,10.81,14.87,5.92,6.1,6.95,5.17,-2.15,,
W274656077133601,BHARATPUR,Kama,JURAHRA,77.23,27.78,0.78,15.5,188,7.94,7.33,7.53,8.33,11.34,8.72,8.72,9.24,3.4,1.39,,
W270200077330001,BHARATPUR,Roopwas,KHANUA,77.55,27.03,0.53,13,181,8.98,8.1,8.75,8.38,11.77,11.67,11.57,11.2,2.79,3.57,,
W265700077230001,BHARATPUR,Bayana,Kheria Mod,77.38,26.95,0.4,11.2,194,5,5.06,6.5,5.38,6.56,6.8,6.83,7.49,1.56,1.74,,
W271900077230005,BHARATPUR,Kumher,KUMHER,77.38,27.32,1,12,182,3.84,3.63,2.86,2.98,2.85,1.31,1.4,0.15,-0.99,-2.32,,
W271030077234201,BHARATPUR,Sewar,Ludhawai GWD,77.4,27.18,0,10.9,184,7.51,6.56,6.57,6.53,6.38,4.75,4.9,5.55,-1.13,-1.81,,
W270951077191401,BHARATPUR,Nadbai,Lulhara,77.32,27.16,1,60,191,20.6,17.47,19,,0,0,0,18.96,,,,
W272342077210901,BHARATPUR,Deeg,MANDHERA,77.35,27.4,0.29,20,181,10.4,10.03,9.72,10.03,13.31,11.61,11.71,11.05,2.91,1.59,,
W271230077124501,BHARATPUR,Nadbai,NADBAI,77.21,27.21,1.08,90.62,203,17.2,16.43,17.86,18.16,20.55,20.27,21.42,22.73,3.35,3.84,,
W270854077043401,BHARATPUR,Weir,Newada Deep,77.08,27.15,1,98,212,25.89,25.56,28.08,27.97,42.37,33.43,33.4,33.9,16.48,7.87,,
W270854077043501,BHARATPUR,Weir,Newada Shallow,77.08,27.15,1,98,212,24.89,25.23,27.74,27.75,42.19,33,33.1,33.2,17.3,7.77,,
W273300077180002,BHARATPUR,Deeg,Pasta,77.3,27.55,1,152,186,5.63,8.32,9.57,10.4,8.73,7.1,7.25,7.9,3.1,-1.22,,
W273412077180001,BHARATPUR,Deeg,SIHORA,77.3,27.57,0.75,15,186,9.16,9.12,9.19,9.18,8.05,6.55,7.85,8.15,-1.11,-2.57,,
W270050077103001,BHARATPUR,Weir,WEIR1,77.18,27.01,1.13,92.2,217,22.39,20.17,21.1,22,38.62,33.97,33.91,37.57,16.23,13.8,12.81,15.57
W254200075211501,BHILWARA,Jahazpur,AMARWASI,75.35,25.7,0.31,6.99,331,3.04,1.67,1.87,1.58,1.59,1.19,1.59,1.69,-1.45,-0.48,-0.28,0.11
W252819074430601,BHILWARA,Banera,BABRANA,74.72,25.47,0.5,200,368,3.51,1.23,1.33,5.83,4,1.88,1.72,2.1,0.5,0.66,0.39,-3.73
W255000074170001,BHILWARA,Asind,BADNOR,74.28,25.83,1.02,15,495,7.43,3.78,6.33,4.99,8.48,7.68,9.03,9.13,1.05,3.9,2.7,4.14
W253113075073401,BHILWARA,Jahazpur,Bagudar,75.13,25.52,0.5,200,286,3.65,2.11,2.4,2.23,3.7,2.7,3.2,3.5,0.05,0.59,0.8,1.28
W252659074215602,BHILWARA,Mandal,BAKLI Pz,74.37,25.45,0.5,200,450,27.65,17.3,4.23,8.32,38,20.92,0,8.88,10.35,3.62,,0.57
W252915074395401,BHILWARA,Banera,BANERAMATAJI,74.67,25.49,0.7,19,423,16.22,10.74,12.67,12.22,17.3,14.47,8.9,10.8,1.08,3.73,-3.77,-1.42
W254530074280001,BHILWARA,Asind,BARASNI,74.47,25.76,1.32,23.68,437,13.95,9.54,8.13,8.63,13.03,7.58,8.83,8.98,-0.92,-1.96,0.71,0.35
W252809075031801,BHILWARA,Kotri,Bhagwanpura,75.06,25.47,0,13.3,362,8.87,6.11,4.95,5.8,7.1,3.2,3.5,3.9,-1.77,-2.91,-1.45,-1.9
W252700074512602,BHILWARA,SHAHPURA,Bhojpur_Pz,74.86,25.45,0.5,200,319,6.05,2.48,0.94,1.5,4.6,1.2,1.35,0.95,-1.45,-1.28,0.42,-0.55
W253820075065501,BHILWARA,Jahazpur,Bhopalpural,75.12,25.64,0.4,14,346,8.04,6.17,5.56,7.01,3.6,0.4,0.5,0.7,-4.44,-5.77,-5.06,-6.31
W251440075014701,BHILWARA,Mandalgarh,BIGOD,75.03,25.24,0.7,10.9,358,8.69,3.78,5.61,3.48,9.7,2.85,3.56,1.68,1.02,-0.93,-2.05,-1.8
W251012075192201,BHILWARA,Mandalgarh,BIJOLIA,75.32,25.17,0.47,15.38,528,7.86,4.56,4.77,5.29,5.63,5.33,2.96,3.28,-2.23,0.77,-1.81,-2.01
W254100075200001,BHILWARA,Jahazpur,BORANI,75.33,25.68,0.41,20,345,14.6,9.02,10.83,11.78,9.89,16.99,13.49,13.59,-4.71,7.97,2.67,1.81
W253140074180301,BHILWARA,Mandal,Dahimatha,74.3,25.53,0.16,25,493,21.41,15.89,17.8,17.85,21.85,22.37,16.93,24.5,0.44,6.49,-0.87,6.65
W251500074025501,BHILWARA,Raipur,Dangri,74.05,25.26,0.5,200,529,15.99,18.23,15.33,16.35,20.7,18.8,18.87,19.85,4.71,0.57,3.55,3.5
W253800074191201,BHILWARA,Asind,Daulatgarh,74.32,25.63,0.2,29.8,529,9.37,4.78,4.46,4.83,6.8,5.3,3.48,4.3,-2.57,0.52,-0.98,-0.53
W251700074093001,BHILWARA,Raipur,DEVARIA,74.16,25.28,1.4,33.6,525,18.54,17.01,16.92,15.24,26.1,21,24.53,25.4,7.56,3.99,7.61,10.16
W254807074523001,BHILWARA,SHAHPURA,Devariya,74.88,25.8,0.5,200,326,5.18,3.58,3.51,2.85,3.9,3.45,3.7,3.85,-1.28,-0.13,0.2,1
W253353074492701,BHILWARA,SHAHPURA,Dhikola Pz,74.82,25.57,0.5,200,346,5.45,4,3.7,4.13,6,3,2.6,2.65,0.55,-1,-1.1,-1.48
W254050074272701,BHILWARA,Asind,Dholi Pz,74.46,25.68,0.5,200,412,18.55,13.9,8.03,11.92,18.6,10.15,9.4,9.5,0.05,-3.75,1.38,-2.42
W251143074173901,BHILWARA,Sahara,Galodiya,74.29,25.2,0,24.3,477.425,13.53,12.92,13.76,14.77,18.5,16.8,20.88,15.6,4.97,3.88,7.12,0.83
W251300074153501,BHILWARA,Sahara,GANGAPURI,74.26,25.22,0.42,25.53,506,14.9,10.1,9.16,8.69,11.08,9.38,8.6,9.63,-3.82,-0.71,-0.56,0.94
W251050074374801,BHILWARA,Suwana,HAMIRGARH,74.63,25.18,0.81,25,421,14.76,8.29,8.83,12.51,21.19,10.49,8.34,8.99,6.43,2.2,-0.49,-3.52
W253240074302701,BHILWARA,Asind,Jeewaliya,74.51,25.54,0.7,17,458,12.45,7.25,7.09,8.07,8.5,6.6,6.01,8.7,-3.95,-0.65,-1.08,0.63
W254520074542001,BHILWARA,SHAHPURA,KANCHAN - KALA,74.91,25.76,1,10.5,369,4.99,2.56,2.58,2.41,4.3,2.7,2.8,3.15,-0.69,0.14,0.22,0.74
W251322074253001,BHILWARA,Suwana,Karoi Kalan,74.43,25.22,1.5,25,461,13.45,14.45,8.83,9.3,2.7,9.9,14.38,7.45,-10.75,-4.55,5.55,-1.85
W252214074463001,BHILWARA,Suwana,KODUKOTA,74.78,25.37,0.35,25,406,12.47,9.43,7.53,6.75,9.05,8.75,9.15,4.1,-3.42,-0.68,1.62,-2.65
W251828074105501,BHILWARA,Sahara,KOSHITHAL,74.18,25.31,0.5,200,475,8.85,6.3,1.76,2.55,6,4.7,3.18,3.3,-2.85,-1.6,1.42,0.75
W252350074533001,BHILWARA,Kotri,KOTARI,74.89,25.4,1.13,17.63,379,10.39,6.41,6.07,7.79,7.07,3.97,4.29,3.37,-3.32,-2.44,-1.78,-4.42
W250915075071701,BHILWARA,Mandalgarh,Ladpura,75.12,25.15,0.21,20,397,6.99,5.78,4.36,4.46,15,4.69,4.26,3.95,8.01,-1.09,-0.1,-0.51
W253910075225701,BHILWARA,Jahazpur,Luhari Kallan,75.38,25.65,0.5,200,293,11.04,8.55,3.9,7.35,13.1,4.8,3.95,4.2,2.06,-3.75,0.06,-3.15
W253125074192701,BHILWARA,Mandal,MALAS Pz,74.32,25.52,0.5,200,445,15.94,10.38,9.25,12.33,21,15,12.16,13.95,5.06,4.63,2.92,1.63
W251100075053801,BHILWARA,Mandalgarh,MANDALGARH1,75.09,25.18,0.5,30,351,16.38,12.54,10.83,12.34,20.7,15.7,11.08,6.65,4.32,3.16,0.26,-5.69
W251800074322102,BHILWARA,Suwana,MCI ( Pur ),74.54,25.3,0.5,2001,392,4.88,2.4,2.89,8,4.9,4.1,4.38,4.5,0.03,1.7,1.49,-3.5
W250352075174201,BHILWARA,Bijoliya,PAPARBAR,75.3,25.06,0.5,200,439,18.1,15.5,9.83,6.75,39.8,38.1,8.9,6.15,21.7,22.6,-0.93,-0.6
W254600074213901,BHILWARA,Asind,PARASOLI,74.36,25.78,0.5,200,433,11.4,11.63,10.07,11.7,18.2,9.8,9.4,9.65,6.8,-1.83,-0.67,-2.05
W253104075053001,BHILWARA,Kotri,PAROLI,75.09,25.52,0.3,10.4,341,4.21,2.51,2.84,2.8,3.8,2.8,2.45,2.7,-0.41,0.29,-0.39,-0.1
W254631074304801,BHILWARA,Hurda,PHALAMADA,74.51,25.78,0.5,200,345,17.73,15.15,7.6,7.18,15.75,15.55,14.6,14.75,-1.98,0.4,7,7.58
W252306074063001,BHILWARA,Raipur,PITAKHERA,74.11,25.39,1,24.3,544,15.17,8.64,8.08,10.06,20.3,17.2,9.15,10.5,5.13,8.56,1.07,0.44
W250812074130201,BHILWARA,Sahara,POTLAN,74.22,25.14,0.5,200,441,5.08,2.28,3.23,5.08,4.7,4.9,3.92,4.25,-0.38,2.63,0.7,-0.83
W254152074591101,BHILWARA,SHAHPURA,Rahad,74.99,25.7,0.5,200,304,2.8,1.55,1.81,1.75,3.25,2.4,4.55,4.7,0.45,0.85,2.74,2.95
W253800074360001,BHILWARA,Banera,RAILA ROAD,74.6,25.63,0.85,26,431,13.01,8.02,7.68,7.86,12.3,6.25,6.4,6.65,-0.71,-1.77,-1.28,-1.21
W252413074094001,BHILWARA,Raipur,Raipur,74.16,25.4,1,26.5,533,8.28,4,4.66,8.11,5,4.1,3.94,4.6,-3.28,0.1,-0.72,-3.51
W251700075000601,BHILWARA,Kotri,RAMNAGAR Pz,75,25.28,0.5,200,346,28.8,21.03,12.75,15.9,32.8,7.92,5.38,9.02,4,-13.11,-7.37,-6.88
W251736075194301,BHILWARA,Bijoliya,Rampuriya Pz,75.33,25.29,0.5,200,331,21.64,12.55,11.61,15.3,37.1,33.8,5.72,11.15,15.46,21.25,-5.89,-4.15
W254814074271202,BHILWARA,Asind,Rooppura,74.45,25.8,0.5,200,439,18.28,18.38,14.08,17.04,27.65,14,15.65,15.8,9.38,-4.38,1.58,-1.24
W250650075154001,BHILWARA,Mandalgarh,SALAWATIA,75.26,25.11,0.5,31,530,23.85,12.07,15.61,18.02,26.1,22.7,6.75,16.4,2.25,10.63,-8.86,-1.62
W251214074092001,BHILWARA,Sahara,SALERA,74.16,25.2,0.5,200,456,10.35,9.05,5.06,6.25,12.4,10,7.38,8.45,2.05,0.95,2.32,2.2
W251825074520001,BHILWARA,Kotri,SAWAIPUR,74.87,25.31,1,28.99,387,14.53,9.41,9.84,11.73,13.55,12.05,8.32,10.55,-0.98,2.64,-1.52,-1.18
W251131074260901,BHILWARA,Suwana,SETHORIYA,74.44,25.19,0.5,200,413,20.5,15.65,12.46,14.6,28.3,20.9,18.86,19.75,7.8,5.25,6.41,5.15
W254135074073601,BHILWARA,Mandal,SHIVPUR_Pz,74.13,25.69,0.5,200,542,11.54,11.55,7.54,5.25,16.7,14.8,14.9,17.7,5.16,3.25,7.36,12.45
W251156075253101,BHILWARA,Bijoliya,Soonthi,75.43,25.2,0.5,200,348,21.95,14.23,12.21,12.25,34,31.9,3.88,11.8,12.05,17.68,-8.33,-0.45
W253615074540001,BHILWARA,SHAHPURA,SOPURA,74.9,25.6,0.12,13.62,374,7.71,5.24,6.26,7.5,7.68,4.18,3.78,4.08,-0.03,-1.06,-2.48,-3.42
W252100074420001,BHILWARA,Suwana,SUWANAI,74.7,25.35,0,25,407,13.54,6.95,7.35,9.83,13.3,12.1,3.65,3.08,-0.24,5.15,-3.7,-6.75
W253340074480001,BHILWARA,SHAHPURA,Taswaria Khurd,74.8,25.56,0.25,16.85,389,13.75,8.37,8.41,11.58,13.4,6.25,4.25,4.75,-0.35,-2.12,-4.16,-6.83
W252636074120001,BHILWARA,Raipur,Thala Pz,74.2,25.44,0.5,200,495,17.55,10.13,8.66,10.3,17.6,17.3,5.65,12.3,0.05,7.18,-3.01,2
W253551074184801,BHILWARA,Asind,TILOLI,74.31,25.6,1.15,15.48,498,7.27,2.51,1.89,2.99,1.25,0.83,0.9,1.2,-6.02,-1.68,-0.99,-1.79
W284010072450001,BIKANER,Bikaner,6 PB,72.75,28.67,1,137.5,136,17.68,17.54,16.95,16.99,16.6,16.54,16.51,16.33,-1.08,-1,-0.44,-0.66
W285600073530001,BIKANER,Lunkaransar,ARJANSAR,73.88,28.93,2.05,71.75,206,18.43,17.86,18.55,18.8,19.45,19.72,19.35,19.71,1.02,1.86,0.8,0.91
W284205073455101,BIKANER,Lunkaransar,BADERAN,73.76,28.7,1.2,49.29,207,39.37,33.22,35.45,36.75,0,32.32,35.8,36.4,,-0.9,0.35,-0.35
W275600072303001,BIKANER,Kolayat,BAJJU,72.51,27.93,1.16,43.14,165,32.29,32.62,31.79,31.63,29.19,30.33,28.95,29.14,-3.1,-2.29,-2.84,-2.49
W275500072320801,BIKANER,Kolayat,Bajju ( tejpura ),72.54,27.92,1,120,164,31.3,30.5,30.13,30.31,28.59,28.63,28.58,28.49,-2.71,-1.87,-1.55,-1.82
W282742073275101,BIKANER,Lunkaransar,Binjawari Dw,73.46,28.46,0.5,10.7,211,4.87,4.38,4.67,5.17,4.7,4.7,2.7,4.85,-0.17,0.32,-1.97,-0.32
W284000073080001,BIKANER,Bikaner,CHHATARGARH,73.13,28.67,0.13,57.17,166,32.73,30.81,31.28,31.76,29.67,29.41,29.48,29.25,-3.06,-1.4,-1.8,-2.51
W274800073210002,BIKANER,Bikaner,DESHNOKH,73.35,27.8,1,205,271,116.7,116.08,115.26,116.18,116.8,116.93,116.98,117.08,0.1,0.85,1.73,0.9
W281300073380003,BIKANER,Bikaner,Dhirera Pz,73.63,28.22,1,64,210,50.4,52.03,51.23,50.45,51.68,51.4,51.45,51.46,1.28,-0.63,0.22,1.02
W274700072380001,BIKANER,Kolayat,Gariyala_Pz,72.63,27.78,1,164,205,60.95,60.91,60.8,61.17,63.15,63.37,63.54,63.85,2.2,2.46,2.74,2.68
W275930072174801,BIKANER,Kolayat,GODU,72.3,27.99,1.17,48.83,152,19.5,19.58,18.72,19.41,17.93,21.36,18.73,18.87,-1.57,1.78,0.01,-0.54
W275900072210001,BIKANER,Kolayat,Godu Pz I,72.35,27.98,1.1,190.61,149,16.93,17.08,16.64,15.72,16.42,16.5,16.53,16.49,-0.51,-0.58,-0.11,0.77
W275900072210002,BIKANER,Kolayat,Godu Pz II,72.35,27.98,0.9,190.3,149,14.69,15.71,14.98,14.78,14.6,15.03,15.16,15.3,-0.09,-0.68,0.18,0.52
W282623073383101,BIKANER,Lunkaransar,Hanseran,73.63,28.44,0.5,90,204,28.63,28.64,28.29,30.26,56.2,55.66,55.77,55.91,27.58,27.02,27.48,25.65
W283435073484001,BIKANER,Lunkaransar,HARIASAR,73.81,28.58,2.65,61.95,197,27.76,28.11,27.42,29.89,28.98,30.67,30.71,35.25,1.22,2.56,3.29,5.36
W281830072310401,BIKANER,Kolayat,JAGGASAR,72.52,28.31,0.3,250,127,18.31,18.28,18.06,17.56,16.7,16.58,16.57,16.46,-1.61,-1.7,-1.49,-1.1
W274000073394501,BIKANER,Nokha,KAKRA,73.66,27.67,1.62,178.92,305,81.69,84.16,84.88,84.32,95.32,95.16,95.46,95.66,13.63,11,10.58,11.34
W280230072210001,BIKANER,Kolayat,Kandharli Deep,72.35,28.04,1,184,155,11.5,11.38,11.26,11.63,11.83,12.29,12.4,12.46,0.33,0.91,1.14,0.83
W280230072210002,BIKANER,Kolayat,Kandharli Shallow,72.35,28.04,1,88,155,11.57,11.43,11.33,11.52,12.15,11.52,11.84,11.89,0.58,0.09,0.51,0.37
W273015073260001,BIKANER,Nokha,Kanwalisar,73.43,27.5,1,150,328,66,66.51,65.01,65.46,65.65,55.7,64.67,65.6,-0.35,-10.81,-0.34,0.14
W275731073141401,BIKANER,Bikaner,KARMISAR,73.24,27.96,1.02,139.6,217,68.96,68.23,67.51,68.18,65.28,64.3,64.26,64.08,-3.68,-3.93,-3.25,-4.1
W281945073291501,BIKANER,Lunkaransar,KASTURIA,73.49,28.33,0.94,42.6,186,33.99,34.04,33.51,34.02,36.76,36.21,34.17,34.12,2.77,2.17,0.66,0.1
W281940073293001,BIKANER,Lunkaransar,Kasturia Pz,73.49,28.33,1,120,186,34.34,34.87,34.34,34.31,36.55,35.55,38.94,33.91,2.21,0.68,4.6,-0.4
W284135072352901,BIKANER,Khajuwala,Khajuwala_Pz,72.59,28.69,0,240,139,20.73,19.34,19.29,19.85,19.95,19.93,19.92,19.93,-0.78,0.59,0.63,0.08
W281145073232801,BIKANER,Bikaner,KHARA1,73.39,28.2,1.23,64.27,202,50.87,50.38,50.23,50.52,50.01,49.67,49.75,49.67,-0.86,-0.71,-0.48,-0.85
W285600073243001,BIKANER,Lunkaransar,KHARBARO,73.41,28.93,1.31,47.7,190,7.31,7.52,6.44,7.65,6.99,7.39,7.54,6.89,-0.32,-0.13,1.11,-0.76
W282845073333001,BIKANER,Lunkaransar,Khirera,73.56,28.48,0.6,10.68,224,6.87,5.99,6.86,6.94,0,7.9,7.87,7.45,,1.91,1.01,0.51
W250300074380001,CHITTAURGARH,Gangrar,GANGRARI1,74.63,25.05,0.85,22,405,13.91,10.32,9.09,9.89,12.25,8.49,10.9,11.65,-1.66,-1.83,1.81,1.76
W241648074305401,CHITTAURGARH,Bari Sadari,KALAKHET,74.52,24.28,0.45,25.4,507,19.97,6.73,10.67,13.16,18.95,14.65,7.35,7.65,-1.02,7.92,-3.32,-5.51
W245140074183001,CHITTAURGARH,Kapasan,KAPASANI,74.31,24.86,0.35,20.78,460,5.93,5.41,3.47,3.91,6.55,5.66,4.33,4.05,0.62,0.25,0.86,0.14
W250210074293001,CHITTAURGARH,Gangrar,KHARKHANDA,74.49,25.04,0.46,25,451,16.9,12.41,11.23,13.57,0,0,15.5,15.49,,,4.28,1.92
W245420074384001,CHITTAURGARH,Chittaurgarh,MANPURA2,74.64,24.91,0.33,18,398,11.16,5.48,6.31,8.79,9.87,8.17,5.92,9.17,-1.29,2.7,-0.39,0.38
W250440075100001,CHITTAURGARH,Begun,MENAL,75.17,25.08,0.55,6.85,522,2.72,1.47,1.68,2.08,1.95,0.55,0.88,1.1,-0.77,-0.92,-0.8,-0.98
W245230074160001,CHITTAURGARH,Kapasan,MUNGANA,74.27,24.88,1.08,24,463,13.19,9.56,8.16,10.2,15.12,9.93,13.34,12.12,1.93,0.37,5.18,1.92
W245700074410601,CHITTAURGARH,Chittaurgarh,NAGARII,74.69,24.95,0.05,17.75,415,14.52,7,6.41,9.61,16.15,3.35,3.79,5.3,1.64,-3.65,-2.62,-4.31
W250811074531501,CHITTAURGARH,Begun,PARSOLI,74.89,25.14,1.65,25,398,11.7,2.81,4.06,5.21,22.65,20.45,2.47,4,10.96,17.64,-1.59,-1.21
W250400074214501,CHITTAURGARH,Rashmi,RASHMII,74.36,25.07,1.55,12.5,448,7.83,5.72,5.59,5.99,7.95,6.75,7.2,7.05,0.12,1.03,1.61,1.07
W245600075353001,CHITTAURGARH,Bhainsrogarh,RAWATBHATA,75.59,24.93,1.35,9.95,358,0.99,0.64,0.36,0.62,2.85,0.95,0.65,0.78,1.86,0.31,0.29,0.16
W245600074272001,CHITTAURGARH,Kapasan,SINGHPUR,74.46,24.93,0.5,17.17,432,13.44,7.38,6.57,11.15,0,0,13.12,15,,,6.55,3.85
W283437074301601,CHURU,Sardar Sahar,Aspalsar,74.5,28.58,2.5,50,241,44.25,42.08,43.78,43.88,44.45,43.46,43.5,43.48,0.21,1.38,-0.28,-0.4
W274400074070001,CHURU,Sujjangarh,BAMBOO,74.12,27.73,1,80,319,64.44,64.01,63.63,64.12,66.15,66.1,75.6,65.33,1.71,2.09,11.97,1.21
W284537075013801,CHURU,Taranagar,BHALAUTIBBA,75.03,28.76,1.99,18.01,215,12.37,12.23,12.04,12.73,15.26,11.92,11.97,11.81,2.89,-0.31,-0.07,-0.92
W275820074323001,CHURU,Ratangarh,BHOJASAR,74.54,27.97,1.48,35,317,29.91,29.7,29.2,29.5,29.72,29.82,29.59,29.34,-0.19,0.12,0.39,-0.16
W275019074170001,CHURU,Sujjangarh,BIDASAR,74.28,27.84,2.44,62.56,309,6.72,6.16,6.27,10.06,8.04,16.56,7.81,9.31,1.32,10.4,1.54,-0.75
W281545074523001,CHURU,Churu,BINASAR,74.88,28.26,2.31,45,296,32.93,32.76,32.13,34.06,37.29,34.39,33.69,33.89,4.36,1.63,1.56,-0.17
W285030074543001,CHURU,Taranagar,DHIRAWAS,74.91,28.84,1.8,15.2,210,9.1,7.92,9.09,9.17,9,7.45,8.78,8.92,-0.1,-0.47,-0.31,-0.25
W282815075044501,CHURU,Churu,DUDWA KHARA,75.08,28.47,1.81,92.5,276,18.76,19.15,18.94,18.95,19.89,19.32,19.59,19.69,1.14,0.17,0.65,0.75
W274415074250701,CHURU,Sujjangarh,GULERIYA,74.42,27.74,2,18,316,9.62,9.33,8.93,9.34,10.33,9.9,9.92,9.9,0.71,0.57,0.99,0.56
W283200075262001,CHURU,Rajgarh,HARPALU KHUSALA,75.44,28.53,1,114.5,254,38.97,39.12,39.45,38.97,42.15,38.6,38.65,38.24,3.18,-0.52,-0.8,-0.73
W275500074410001,CHURU,Ratangarh,KANWARI,74.68,27.92,1,52.5,320,27.93,27.88,27.61,28.36,28.25,28.24,28.2,27.96,0.32,0.36,0.59,-0.4
W280030074365501,CHURU,Ratangarh,LOHA,74.62,28.01,1.59,50,326,29.03,29.21,28.4,29.07,27.68,29.91,28.91,29.48,-1.35,0.7,0.51,0.41
W283015074441501,CHURU,Sardar Sahar,MELUSAR,74.74,28.5,2.92,48,256,27.45,26.86,24.76,23.93,26.33,23.01,21.55,23.16,-1.12,-3.85,-3.21,-0.77
W281215074315001,CHURU,Ratangarh,MELUSARI,74.53,28.2,1,70,297,41.27,41.22,41.83,43.46,49.5,42.75,42.8,42.92,8.23,1.53,0.97,-0.54
W282800075282001,CHURU,Rajgarh,NEEMA,75.47,28.47,1.74,115,270,52.01,48.9,49.3,50.88,53.56,51.9,52.16,52.25,1.55,3,2.86,1.37
W275528074334001,CHURU,Ratangarh,Perihara,74.56,27.92,0,27.2,323.782,21.64,21.14,21.92,20.96,22.7,20.9,20.8,20.08,1.06,-0.24,-1.12,-0.88
W280215074283501,CHURU,Ratangarh,RAJALDESAR,74.48,28.04,1,68.9,321,47,48.51,48.64,48.83,48.64,48.65,48.61,48.62,1.64,0.14,-0.03,-0.21
W283800075223001,CHURU,Rajgarh,RAJGARHI,75.38,28.63,1.99,28,480,22.97,22.38,22.41,23.23,23.91,22.69,22.31,22.15,0.94,0.31,-0.1,-1.08
W285230074503001,CHURU,Taranagar,SHAWA,74.84,28.88,1.3,29.8,212,15.1,13.99,14.09,14.75,16.4,12.8,13.1,12.87,1.3,-1.19,-0.99,-1.88
W282600075075001,CHURU,Churu,SIRSALA,75.13,28.43,1.08,31.69,277,28.16,28.64,28.27,30.03,22.07,30.72,29.87,29.87,-6.09,2.08,1.6,-0.16
W280358074451401,CHURU,Ratangarh,TIDIY ASAR,74.75,28.07,1.6,50,315,41.47,41.75,41.51,43.32,47.3,0,47.35,44.09,5.83,,5.84,0.77
W280400074440002,CHURU,Ratangarh,TIDIY ASAR Pz,74.73,28.07,0.85,111.5,315,40.28,40.41,40.03,40.48,39.75,39.74,39.73,39.73,-0.53,-0.67,-0.3,-0.75
W264826076331701,DAUSA,Sikrai,Bairaonda,76.55,26.81,0,87,333,20.19,19.04,21.02,21.66,25.14,20.1,20.3,21.13,4.95,1.06,-0.72,-0.53
W264854076171701,DAUSA,Dausa,Baniyana,76.29,26.82,0,74,331,12.65,10.49,10.92,12.04,13.8,14.7,12.45,12.6,1.15,4.21,1.53,0.56
W265850076170001,DAUSA,Dausa,BAPI Pz,76.28,26.98,1,91.5,324,12.62,8.94,10.52,11.38,13.03,10.85,13.22,14.76,0.41,1.91,2.7,3.38
W270934076350001,DAUSA,Bandikui,Baswal,76.58,27.16,1,125.4,297,42.35,41.27,42.81,44.23,77.74,70.9,70.96,78.1,35.39,29.63,28.15,33.87
W265830076572001,DAUSA,Mahua,Ghazipur - Pz,76.96,26.98,1,81.4,233,17.56,15.05,14.68,15.17,22.17,15.56,16.35,17.5,4.61,0.52,1.67,2.33
W265400077020002,DAUSA,Mahua,Higetawari Dhani,77.03,26.9,0.2,22,224,14.81,12.57,12.15,11.16,8.32,8.4,8.6,8.87,-6.49,-4.17,-3.55,-2.29
W265800076200001,DAUSA,Dausa,Jasuta,76.33,26.97,1.05,18,311,13.53,9.47,10.64,11.94,13.65,11.02,11.41,14.87,0.12,1.55,0.77,2.93
W265900076224801,DAUSA,Dausa,Kalipahari,76.38,26.98,1,60,313,27.83,27.29,27.7,28.31,35.43,34.04,30.55,31.86,7.6,6.75,2.85,3.55
W265739076172401,DAUSA,Dausa,Khuri,76.29,26.96,0,78,324,27.17,25.35,26.33,28.33,35.73,35.36,28.7,27.55,8.56,10.01,2.37,-0.78
W265700076440001,DAUSA,Sikrai,LANGRA BALAJI,76.73,26.95,1,75,262,40.87,39.22,39.67,41,51.7,49.3,51.1,53.76,10.83,10.08,11.44,12.76
W264700076130001,DAUSA,Dausa,LAWANI,76.22,26.78,1,44,317,38.67,38.27,39.84,39.35,17.8,44.2,0,42.1,-20.87,5.93,5.96,2.75
W264331076270701,DAUSA,Dausa,SAR Pz,76.45,26.73,0.5,200,326,24.85,38.27,21.2,23.82,28.06,28.06,25.7,26.43,3.21,5.98,4.5,2.61
W270550076471201,DAUSA,Bandikui,Sodan Ka Bas,76.79,27.1,1,67,253,37.88,36.29,37.03,37.72,43.83,40.3,40.68,41.14,5.95,4.01,3.65,3.42
W265500077010001,DAUSA,Mahua,Talchidi,77.02,26.92,1,56,229,24.54,19.59,20.4,19.37,17.85,17.25,18.1,19.37,-6.69,-2.34,-2.3,0
W263854077480701,DHAULPUR,Dhaulpur,AATHMEEL,77.8,26.65,0.38,20.72,231,10.27,5.11,5.59,7.2,16.52,6.06,9.76,9.52,6.25,0.95,4.17,2.32
W263618077282301,DHAULPUR,Baseri,ANGAI,77.47,26.61,1.03,21.24,232,10.35,6.18,5.49,7,13.81,5.57,6.07,6.27,3.46,-0.61,0.59,-0.73
W263758077412601,DHAULPUR,Bari,Chhavri Ka Pura,77.69,26.63,1,60,224,10.4,7.14,8.8,10.22,15.14,9.15,9.4,9.34,4.74,2.02,0.6,-0.88
W264200077533001,DHAULPUR,Dhaulpur,Dhaulpur,77.89,26.7,0.4,21.02,238,14.65,14.15,13.98,13.72,15.13,14.5,14.15,14.14,0.48,0.35,0.17,0.43
W264126077532801,DHAULPUR,Dhaulpur,Dhaulpurl,77.89,26.69,0,31.22,238,11.63,12.24,12.23,12.4,13.14,12.5,12.16,12.9,1.51,0.26,-0.07,0.5
W263443077412601,DHAULPUR,Bari,GAJPURA,77.69,26.58,1,14,281,7.32,4.6,5.64,5.78,8.5,2.53,3.03,3.05,1.18,-2.07,-2.61,-2.73
W265130077430001,DHAULPUR,Dhaulpur,KANTHRI,77.72,26.86,0.6,8,181,5.43,5.37,5.63,5.24,5.6,4.9,4.8,4.7,0.17,-0.47,-0.83,-0.54
W285200073210002,BIKANER,Lunkaransar,LAKHANSAR DW,73.35,28.87,1.1,50,168,12.73,12.61,12.03,12.47,10.6,16.1,10.58,11.7,-2.13,3.49,-1.45,-0.77
W280545073521501,BIKANER,Dungargarh,LAKHASAR2,73.87,28.1,1.65,47.95,245,38.12,36.1,36.53,36.56,37.72,37.55,35.63,36.2,-0.4,1.45,-0.9,-0.36
W281900073113001,BIKANER,Bikaner,LAKHUSAR,73.19,28.32,0.9,51,186,43.29,44.21,43.58,43.41,45.25,42.24,42.34,42.31,1.96,-1.97,-1.24,-1.1
W283200073334502,BIKANER,Lunkaransar,LALERAI,73.56,28.53,1,150,211,32.63,31.95,32.22,32.09,31,30.95,30.77,30.97,-1.63,-1,-1.45,-1.12
W283800073360002,BIKANER,Lunkaransar,"Laxmi Narayansar
 Dhani",73.6,28.63,1,150,202,6.49,6.63,6.34,6.71,7.5,7.7,7.69,7.46,1.02,1.07,1.35,0.75
W282930073450001,BIKANER,Lunkaransar,LUNKARANSAR1,73.75,28.49,0.97,129,197,44.29,47.29,48.1,45.26,53.19,52.93,51.58,53.49,8.9,5.64,3.48,8.23
W284700073500001,BIKANER,Lunkaransar,MAHAJAN,73.83,28.78,1.55,51.5,199,34.44,33.95,34.16,34.88,37.76,0,0,0,3.32,,,
W284600073490001,BIKANER,Lunkaransar,Mahajan - Pz,73.82,28.77,1,67.3,306,36.85,37.51,36.89,37.57,0,38.4,38.4,38.43,,0.89,1.51,0.86
W284001073550801,BIKANER,Lunkaransar,MALKISAR,73.92,28.67,1.38,59.62,198,15.05,13.88,14.04,15.77,14.67,15.92,15.82,16.07,-0.38,2.04,1.78,0.3
W284530073462001,BIKANER,Lunkaransar,MANARIA,73.77,28.76,0.69,54.41,196,48.98,48.84,48.69,49.08,48.76,47.26,47.16,47.47,-0.22,-1.58,-1.53,-1.61
W280206072293001,BIKANER,Kolayat,MANKASAR,72.49,28.04,1.5,19.46,166,11.86,11.57,11.41,11.46,12.7,12.62,13,13.07,0.84,1.05,1.59,1.61
W285305073171501,BIKANER,Lunkaransar,RANER,73.29,28.88,0.4,47.6,161,14.09 .,14.91,14.31,14.53,13.1,13.3,13.51,13.86,-0.99,-1.61,-0.8,-0.67
W280135072073001,BIKANER,Kolayat,RANJITPURA,72.13,28.03,0,42.8,146,25.22,25.23,24.99,26.22,24.55,24.46,24.48,24.42,-0.67,-0.77,-0.51,-1.8
W284200073530001,BIKANER,Lunkaransar,Sangrew,73.88,28.7,1,153,197,27.43,25.94,25.88,24.67,24.25,23.86,23.53,24.38,-3.18,-2.08,-2.35,-0.29
W283530073113001,BIKANER,Bikaner,SATTASAR,73.19,28.59,0.89,57.91,179,30.1,29.76,29.72,29.71,29.41,29.87,29.74,29.97,-0.69,0.11,0.02,0.26
W251600075450001,BUNDI,Talera,BALLOP,75.75,25.27,1,6,248,4.56,1.21,1.82,1.61,4.8,1.53,1.8,1.87,0.24,0.32,-0.02,0.26
W253100076100001,BUNDI,Keshorai Patan,Dahi Khera,76.17,25.52,0.57,7.38,230,5.04,1.52,6.08,4.14,6.53,0.71,6.5,6.64,1.49,-0.81,0.42,2.5
W252815075520001,BUNDI,Bundi,DELUNDA,75.87,25.47,0.61,17.68,229,12.68,9.55,10.07,10.44,13.29,8.59,10.47,10.36,0.61,-0.96,0.4,-0.08
W253230075594501,BUNDI,Keshorai Patan,GAINDOLI,76,25.54,1,10.72,231,6.29,1.74,3.36,4.76,9.2,0.5,6.75,6.86,2.91,-1.24,3.39,2.1
W252328076042501,BUNDI,Keshorai Patan,KAPREN,76.07,25.39,0.59,6.71,236,2.69,2.05,1.83,2.28,3.51,1.55,1.27,1.15,0.82,-0.5,-0.56,-1.13
W251908075555001,BUNDI,Keshorai Patan,KESHORAIPATAN,75.93,25.32,0.54,3.96,245,2.46,1.01,1.52,1.29,2.56,1.36,0.46,0.4,0.1,0.35,-1.06,-0.89
W254000076110001,BUNDI,Keshorai Patan,LAKHERI,76.18,25.67,1.5,3.95,228,2.03,0.56,0.97,1.02,4.6,0.1,2.15,2.29,2.57,-0.46,1.18,1.27
W252430075531501,BUNDI,Keshorai Patan,MAIJA,75.89,25.41,1.1,10.7,232,2.37,2.35,0.82,0.63,2.8,0.63,0.92,0.84,0.44,-1.72,0.1,0.21
W253412075565001,BUNDI,Nainwa,MOTIPURA,75.95,25.57,0.51,14,303,11.41,7.12,8.65,8.46,0,1.04,0,0,,-6.08,,
W252940075472401,BUNDI,Bundi,RAJWAS,75.79,25.49,0.51,7.5,239,5.43,1.65,2.45,2.82,0,0.89,3.45,3.73,,-0.76,1.01,0.91
W252400075333001,BUNDI,Bundi,RAMNAGAR ( JATAN ),75.56,25.4,0.81,15.23,259,8.04,1.76,2.72,5.69,6.89,1.5,3.17,2.86,-1.15,-0.26,0.45,-2.83
W252614075305501,BUNDI,Hindoli,SATUR,75.52,25.44,0,15,305,9.98,5.8,5.86,5.3,5.4,6.3,4.88,5.63,-4.58,0.5,-0.98,0.33
W244500074115701,CHITTAURGARH,Bhopalsagar,AKOLA,74.2,24.75,0.2,16,454,11.41,7.66,7.7,8.5,9,8,7.84,7.5,-2.41,0.34,0.14,-1
W244336074270001,CHITTAURGARH,Bhadesar,BANSEN,74.45,24.73,0.25,28,428,18.04,9.24,9.88,12.01,25.85,24.25,8.51,9.2,7.81,15.02,-1.37,-2.81
W245100074352001,CHITTAURGARH,Chittaurgarh,Bojunda,74.59,24.85,0.6,155,415,20.62,16.11,15.51,14.47,23.9,16.78,13.6,14.05,3.28,0.67,-1.91,-0.42
W264505077484001,DHAULPUR,Dhaulpur,Karimpur,77.81,26.75,0,55,177,28.22,25.73,27.97,28.72,31.59,28.67,28.7,29.4,3.37,2.94,0.73,0.68
W264900077411002,DHAULPUR,Baseri,Lebudapura,77.69,26.82,1,15,185,3.78,3.15,2.99,3.78,4.64,3.86,3.2,3.7,0.86,0.71,0.21,-0.08
W264900077573001,DHAULPUR,Rajakhera,Mangraul,77.96,26.82,0,38,166,24.75,23.37,25.89,25.71,36.02,35.2,35.25,35.27,11.27,11.83,9.36,9.56
W263120077231501,DHAULPUR,Baseri,NAKATPURA,77.39,26.52,0.45,11.45,262,7.95,3.58,4.35,5.12,8.65,0,0,0,0.7,11.83,9.36,9.56
W264918077444701,DHAULPUR,Dhaulpur,Saipau,77.75,26.82,0.5,20,179,13.13,12.55,12.75,12.16,7.74,12.38,12.03,11.94,-5.39,-0.17,-0.72,-0.22
W265606078081501,DHAULPUR,Rajakhera,SIKRONDA,78.14,26.94,1,122.72,162,31.85,28.25,30.62,31.86,35.85,31.1,31.25,31.2,4,2.85,0.63,-0.66
W234514073505201,DUNGARPUR,Dungarpur,Anteree,73.85,23.75,0.43,| 5.71,314,4.1,1.6,2.77,2.04,4.67,2.57,2.37,2.67,0.57,0.97,-0.4,0.63
W235700074050001,DUNGARPUR,Aspur,Aspur,74.08,23.95,1,150,202,12.23,7.69,8.77,8.95,3.9,0,0,1.9,-8.33,-0.17,-0.65,-7.05
W235730074044501,DUNGARPUR,Aspur,ASPURI,74.08,23.96,0,13,206,5.63,2.68,4.86,4.23,4.6,1.9,2.6,2.9,-1.03,-0.78,-2.26,-1.33
W235421074041501,DUNGARPUR,Aspur,BARODA,74.07,23.91,0.74,10.06,193,3.3,1.13,1.36,1.81,3.26,1.86,2.26,2.66,-0.04,0.73,0.9,0.85
W233712074050001,DUNGARPUR,Sagwara,BHILURA,74.08,23.62,1.52,11.48,132,6.64,2.24,2.93,3.32,6.78,4.58,3.58,3.98,0.15,2.34,0.65,0.66
W233400073580002,DUNGARPUR,Simalwara,Chitri,73.97,23.57,1,86.7,354,10.15,2.95,3.33,5.58,9.1,5.9,3.8,4.2,-1.05,2.96,0.47,-1.38
W235000073431501,DUNGARPUR,Dungarpur,Dungarpurl,73.72,23.83,1.05,16.01,371,8.7,4.12,4.36,4.42,7.05,5.85,3.15,3.45,-1.65,1.74,-1.21,-0.97
W234132073432801,DUNGARPUR,Bichhiwara,GORADA,73.72,23.69,0.33,9,307,8.02,1.96,3.47,5.31,7.77,5.87,2.07,2.87,-0.25,3.91,-1.4,-2.44
W235319073540301,DUNGARPUR,Dungarpur,HATHAI,73.9,23.89,0.77,9.2,255,6.71,1.12,2.24,2.68,6.33,4.83,3.33,3.83,-0.38,3.71,1.09,1.15
W235100074041201,DUNGARPUR,Aspur,KABJA,74.07,23.85,1,92.1,169,4.1,1.1,1.89,2.49,3.96,1.5,1.1,1.5,-0.14,0.4,-0.79,-0.99
W234900073340001,DUNGARPUR,Bichhiwara,KANABA,73.57,23.82,0.5,11.2,321,8.37,1.59,2.57,3.91,6.3,8.5,6.5,7,-2.07,6.91,3.93,3.09
W235100073464501,DUNGARPUR,Dungarpur,MANPUR2,73.78,23.85,0.74,8.59,290,7.21,1.12,2.2,3.59,0,4.86,2.36,2.66,-6.8,3.74,0.16,-0.93
W234100073573001,DUNGARPUR,Sagwara,NANDOR,73.96,23.68,0.5,11.5,181,8.67,2.05,2.16,3.72,3.1,0,0,3.8,-5.57,-3.4,0.18,0.09
W235030073342701,DUNGARPUR,Bichhiwara,NAVAL SHYAM,73.57,23.84,0.66,120.4,339,12.44,1.89,2.72,5.45,0,9.54,7.24,7.84,,7.65,4.52,2.39
W235000073410001,DUNGARPUR,Bichhiwara,NAYADERA,73.68,23.83,0.67,15,286,9.35,3.11,3.24,5.97,8.83,8.33,6.53,7.03,-0.52,5.22,3.29,1.06
W234257074023001,DUNGARPUR,Sagwara,NAYAGAONI,74.04,23.72,0.45,9.9,197,6.48,2.92,3.36,4.01,6.65,4.55,3.35,3.85,0.17,1.63,-0.01,-0.16
W233145073454501,DUNGARPUR,Simalwara,PEETH,73.76,23.53,0.17,12.23,221,12.06,2.1,2.75,5.53,9.13,7.53,3.93,4.53,-2.93,5.43,1.19,-1
W235530073580001,DUNGARPUR,Aspur,Ramgarh2,73.97,23.93,1,20,243,9.14,3.38,4.84,7.59,7.1,6.1,4.9,5.3,-2.04,2.72,0.06,-2.29
W234545073270001,DUNGARPUR,Bichhiwara,RATANPUR,73.45,23.76,0.45,12.75,310,11.32,4.18,4.85,6.8,0,10.55,8.55,0,-3.04,6.37,3.7,-3.4
W235120074104801,DUNGARPUR,Aspur,SABLA,74.18,23.86,0.89,11.51,193,6.06,1.76,2.65,3.35,5.21,3.11,3.01,3.21,-0.85,1.35,0.37,-0.14
W234500074014101,DUNGARPUR,Sagwara,Sagwara,74.03,23.75,1,150,185,9.29,4.66,5.28,6.02,7.7,5.6,4.1,4.7,-1.59,0.94,-1.18,-1.32
W233019074005701,DUNGARPUR,Simalwara,Ubli,74.02,23.51,0,70,141.846,20.43,11.03,12.05,12.13,21.6,16.3,14.6,15.3,1.17,5.27,2.55,3.17
W291126073130801,GANGANAGAR,Anupgarh,ANUPGARH1,73.22,29.19,1.95,28.3,151,14.03,13.63,14.22,14.49,17.65,15.26,16.15,16.25,3.62,1.63,1.93,1.76
W291830073134501,GANGANAGAR,Anupgarh,BANDA COLONY,73.23,29.31,0.82,100,158,9.29,8.4,9.24,9.22,10.23,10.04,17.73,10.55,0.94,1.64,8.49,1.34
W290200073361801,GANGANAGAR,Suratgarh,BHOPALPURA,73.61,29.03,1.75,36.25,174,3.26,1.99,2.58,2.7,2.85,2.93,2.87,2.65,-0.41,0.95,0.29,-0.05
W293800073460001,GANGANAGAR,Padampur,BINJBALIA,73.77,29.63,1,27.75,172,12.55,12.77,12.96,14,17.9,14.56,14.63,0,5.35,1.79,1.68,-0.3
W290700073551001,GANGANAGAR,Suratgarh,Birdhwall,73.92,29.12,1.2,50.85,192,41.05,40.49,40.85,40.97,40.75,38.6,39.01,38.59,-0.3,-1.89,-1.84,-2.38
W294930073434501,GANGANAGAR,Ganganagar,CHUNAWAD,73.73,29.83,1.23,47.77,172,12.75,11.77,11.4,11.09,10.52,10.07,9.21,9.17,-2.23,-1.7,-2.19,-1.92
W292930073374501,GANGANAGAR,Raisingh Nagar,DABLA,73.63,29.49,1.53,31.47,168,10.18,7.31,9.63,10.26,13.82,0,9.91,0,3.64,0.18,0.28,0.19
W294330073354501,GANGANAGAR,Padampur,DELWAN,73.6,29.73,1.35,24.15,166,10.48,8.84,10.44,10.61,8.55,9.29,9.02,7,-1.93,0.45,-1.42,-3.61
W293800073270001,GANGANAGAR,Raisingh Nagar,GAJSINGHPURA,73.45,29.63,0.88,21.12,164,8.87,8.23,8.14,8.12,8.52,7.92,7.45,7.32,-0.35,-0.31,-0.69,-0.8
W294445073540001,GANGANAGAR,Sadul Shahar,GANESHGARH,73.9,29.75,1.48,53.52,176,16.32,15.28,16.61,16.52,18.37,15.72,15.47,15.62,2.05,0.44,-1.14,-0.9
W293545073370001,GANGANAGAR,Padampur,GANGUWALA,73.62,29.6,0.9,31.1,167,12,8.45,10.2,11.38,11,12.08,12.2,0,-1,3.63,2,-0.7
W290200073260001,GANGANAGAR,Anupgarh,GOMANWALI,73.43,29.03,1.6,23.4,169,8.48,6.91,7.41,7.14,7.1,6.37,6.5,6.3,-1.38,-0.54,-0.91,-0.84
W290745073471501,GANGANAGAR,Suratgarh,HARISINGHPURA,73.79,29.13,1.65,47.35,183,20.01,18.9,19.27,19.49,19.55,17.97,18.78,17.95,-0.46,-0.93,-0.49,-1.54
W293045073370001,GANGANAGAR,Raisingh Nagar,JAGATSINGHWALA,73.62,29.51,2.07,47.93,165,10.7,10.17,10.58,10.55,11.53,10.22,10.26,0,0.83,0.05,-0.32,0.98
W292115073380001,GANGANAGAR,Anupgarh,JAITSAR,73.63,29.35,0.7,38.3,167,6.73,6.13,5.93,6.59,10.05,7.55,7.4,7.35,3.32,1.42,1.47,0.76
W292010073411501,GANGANAGAR,Anupgarh,Jaitsar,73.69,29.34,1,84,162,6.93,6.4,6.67,6.48,8.9,7.65,7.7,7.75,1.97,1.25,1.03,1.28
W294900073270001,GANGANAGAR,Karanpur,KARANPURI,73.45,29.82,0.45,20.12,166,5.68,5.15,5.14,4.94,6.65,5.2,11.07,5.3,0.97,0.05,5.93,0.36
W290500073220001,GANGANAGAR,Anupgarh,KHAL,73.37,29.08,1.2,33,155,8.03,6.8,7.57,8.18,11.5,8.93,8.9,8.94,3.47,2.13,1.33,0.76
W295045074143001,GANGANAGAR,Sangaria,KHERUWALA,74.24,29.85,1.07,54.93,182,22.59,20.59,20.43,20.18,23.83,21.38,21.33,21.13,1.24,0.79,0.9,0.95
W295120073591501,GANGANAGAR,Sadul Shahar,Lalgarh,73.99,29.86,0.8,198,178,17.59,17.19,18.63,19.81,30.1,16.34,16.35,16.32,12.51,-0.85,-2.28,-3.49
W295030074012001,GANGANAGAR,Sadul Shahar,LALGARH JATAN,74.02,29.84,1.8,30.2,178,19.04,18.66,19.47,18.72,20.8,17.93,15.3,17.67,1.76,-0.73,-4.17,-1.05
W290600073430001,GANGANAGAR,Suratgarh,LALGARIYA,73.72,29.1,0.35,48.75,179,24.59,24.28,26.83,24.88,25.65,23.93,23.8,23.95,1.06,-0.35,-3.03,-0.93
W293115073350001,GANGANAGAR,Raisingh Nagar,MUKLAWA,73.58,29.52,2.02,42.98,166,11.21,10.12,10.44,10.83,12.68,10.25,10.29,10.28,1.47,0.13,-0.15,-0.55
W294058073513001,GANGANAGAR,Padampur,Narsinghpur,73.86,29.68,1.5,28.3,176,17.66,17.07,17.44,17.57,20.65,17.27,15.2,17,2.99,0.2,-2.24,-0.57
W291630073463001,GANGANAGAR,Suratgarh,PADAMPURA,73.78,29.28,1.69,34.31,181,1.17,0.99,1.2,1.21,1.95,1.75,1.95,0,0.78,0.76,0.75,0.56
W290300073511501,GANGANAGAR,Suratgarh,PIPASAR,73.85,29.05,0.92,58.28,197,38.46,38.66,38.32,38.48,40.98,37.28,38.38,39.98,2.53,-1.38,0.06,1.5
W291454073540001,GANGANAGAR,Suratgarh,PIPERAN,73.9,29.25,1.65,40.15,187,7.15,6.4,6.97,7.16,7.95,7.76,8.05,8.05,0.81,1.36,1.08,0.89
W293230073270001,GANGANAGAR,Raisingh Nagar,RAISINGHNAGAR,73.45,29.54,0.47,32.1,166,11.49,10.83,10.77,10.94,10.73,10.74,9.97,9.73,-0.76,-0.08,-0.8,-1.21
W291000073223001,GANGANAGAR,Anupgarh,RAMSINGHPURA,73.38,29.17,0.41,30.89,157,14.97,14.7,14.87,15.03,17.84,15,14.97,15.04,2.87,0.3,0.1,0.01
W291100073570001,GANGANAGAR,Suratgarh,RAYANWALI,73.95,29.18,1.99,53.51,187,19.65,17.68,17.87,18.59,22.06,18.24,18.33,18.34,2.41,0.56,0.46,-0.25
W291106073570301,GANGANAGAR,Suratgarh,Rayanwali Deep,73.95,29.19,1,170,186,17.08,17.26,16.84,16.98,17.85,17.51,17.42,17.56,0.77,0.25,0.58,0.58
W291106073570302,GANGANAGAR,Suratgarh,Rayanwali Shallow,73.95,29.19,1,170,186,14.64,14.98,16.75,15.23,19.05,17.1,17.03,17.16,4.41,2.12,0.28,1.93
W294745073264501,GANGANAGAR,Karanpur,RUPANAGAR,73.45,29.8,1.15,13.45,166,5.93,5.41,5.33,5.48,7.55,5.42,5.2,5.25,1.62,0.01,-0.13,-0.23
W291700074101501,GANGANAGAR,Pilibanga,SARDARPURA,74.17,29.28,2.5,37.15,192,5.67,5.14,7.3,6.9,16.4,6.7,7.65,6.86,10.73,1.56,0.35,-0.04
W294755074052201,GANGANAGAR,Sadul Shahar,Sunderpura_DW,74.09,29.8,0,45,178.939,24.41,23.75,24.33,25,27.5,24.81,24.98,24.07,3.09,1.06,0.65,-0.93
W294145073550001,GANGANAGAR,Sadul Shahar,SURANWALI,73.92,29.7,2.1,37.3,173,17.95,19.05,18.21,19.39,21.5,18.09,18.4,19,3.55,-0.96,0.19,-0.39
W292800073560001,GANGANAGAR,Pilibanga,SURATGARH,73.93,29.47,0.5,90.11,176,5.92,6.41,7.17,6.88,11.45,8.67,8.9,8.9,5.53,2.26,1.73,2.02
W294830073440001,GANGANAGAR,Ganganagar,TATARSAR,73.73,29.81,0.84,50.76,169,13.37,12.98,14.69,14.78,12.36,11.74,11.72,11.66,-1.01,-1.24,-2.97,-3.12
W295230074280002,HANUMANGARH,Sangaria,Bhagatpura - Pz,74.47,29.88,1,200,190,12.87,12.4,12.84,12.95,17.1,12.61,12.65,12.75,4.23,0.21,-0.19,-0.2
W291400074450002,HANUMANGARH,Nohar,BHUKARKA,74.75,29.23,0.5,34,190,18.72,17.8,18.62,18.93,17.65,14.7,16.5,17.48,-1.07,-3.1,-2.12,-1.45
W290430074180001,HANUMANGARH,Rawatsar,BIRAMSAR,74.3,29.08,1.3,48.2,180,23.88,23.35,24.24,24.33,24.85,23.06,22.4,22.95,0.97,-0.29,-1.84,-1.38
W285200074164001,HANUMANGARH,Rawatsar,BISRASAR,74.28,28.87,1.75,50.15,200,44.93,40.05,44.36,44.56,46.2,41.56,43.95,44.61,1.27,1.51,-0.41,0.05
W295015074243501,HANUMANGARH,Sangaria,BOLANWALI,74.41,29.84,0.8,19,189,15.72,15.4,15.58,15.67,16,14.91,14.95,14.95,0.28,-0.49,-0.63,-0.72
W294150074174001,HANUMANGARH,Hanumangarh,Chak Sampatnagar2,74.29,29.7,1,198.9,186,21.16,22.18,21.14,22.06,25.15,25.51,25.7,25.8,3.99,3.33,4.56,3.74
W291100075193001,HANUMANGARH,Bhadra,CHHANI BARI,75.33,29.18,1.35,19.95,202,12.97,11.31,13.38,13.68,13.85,10.35,10.42,10.55,0.88,-0.96,-2.96,-3.13
W292132074355501,HANUMANGARH,Tibi,CHISTIAN,74.6,29.36,0.5,200,189,29.98,30.55,30.02,30.67,37.7,35.88,35.37,34.72,7.72,5.33,5.35,4.05
W292245074161501,HANUMANGARH,Hanumangarh,CHOHLINYAWALI,74.27,29.38,0.5,45.44,182,4.68,2.68,2.86,3.32,1.4,1.45,0.92,1.25,-3.28,-1.23,-1.94,-2.07
W294530074160001,HANUMANGARH,Hanumangarh,DHOLIPAL,74.27,29.76,2.17,52.83,183,22.53,19.83,21.61,21.4,25.98,22.33,23.5,22.43,3.45,2.5,1.89,1.03
W290050075055001,HANUMANGARH,Bhadra,DUNGRANA,75.1,29.01,0,40,204,14.01,13.19,13.54,13.83,13.9,11.77,11.63,11.35,-0.11,-1.42,-1.91,-2.48
W291300074320001,HANUMANGARH,Rawatsar,GANDEHALI,74.53,29.22,0.9,28.38,189,3.93,2.61,3.28,3.82,7.85,4.93,4.6,4.6,3.92,2.32,1.32,0.78
W292830074073701,HANUMANGARH,Pilibanga,Kalibanga - Pz,74.13,29.48,1.42,201,175,24.31,22.56,22.76,23.89,27.68,26.71,26.56,26.26,3.37,4.15,3.8,2.37
W293345073581501,HANUMANGARH,Pilibanga,LAKHASARI,73.97,29.56,1.6 E,48.6,181,19.45,18.83,19.56,19.94,23.4,23.01,23.04,23.26,3.95,4.18,3.49,3.32
W290200074440001,HANUMANGARH,Nohar,LAKHASAR2,74.73,29.03,1.65,33.35,204,16.1,14.2,15.46,15.85,19,15.69,16.45,15.25,2.9,1.49,0.99,-0.6
W285830074173001,HANUMANGARH,Rawatsar,LAKHERAN,74.29,28.98,1,57.22,191,37.33,36.45,37.07,37.01,39.65,36.34,36.5,36.3,2.32,-0.11,-0.57,-0.71
W285815075020001,HANUMANGARH,Bhadra,MALSISAR,75.03,28.97,1.5,19,202,13.64,12.56,12.58,12.68,13.45,12.79,12.6,13,-0.19,0.23,0.02,0.32
W290600075020001,HANUMANGARH,Bhadra,MUNSARI,75.03,29.1,0.92,29.08,204,14.46,13.91,14.11,14.26,18.18,13.84,13.98,14.05,3.72,-0.07,-0.13,-0.21
W291650074460001,HANUMANGARH,Nohar,NOHARI,74.77,29.28,1.8,26.67,198,15.29,14.81,15.01,15.27,15.1,14,14.7,13.7,-0.19,-0.81,-0.31,-1.57
W292445074120002,HANUMANGARH,Hanumangarh,Paditawali,74.2,29.41,0.85,100,180,8.86,8.79,8.93,11.36,19.1,0,10.53,10.76,10.25,-0.81,1.61,-0.6
W294100074094501,HANUMANGARH,Hanumangarh,PAKKASARNA,74.16,29.68,2.16,49.34,181,25.21,23.62,25.53,26.62,32.99,29.46,29.65,29.84,7.78,5.84,4.12,3.22
W294100074060001,HANUMANGARH,Hanumangarh,Pale Wali Dhani,74.1,29.68,0.7,100,178,26.2,24.97,22.51,25.73,29.95,25.61,25.5,25.68,3.75,0.64,2.99,-0.05
W285500074120001,HANUMANGARH,Rawatsar,PALLU,74.2,28.92 |,0.9,47.5 ile,192,43.23,39.95,43.24,42.8,43.85,42.8,43.1,43.06,0.62,2.85,-0.14,0.26
W292445074120001,HANUMANGARH,Hanumangarh,PANDITAWALI,74.2,29.41,1.84,45.01,180,8.33,7.59,8.13,8.57,12.16,9.95,10.11,9.92,3.83,2.36,1.98,1.35
W290200074170001,HANUMANGARH,Rawatsar,PURABSAR,74.28,29.03,1.6,62.35,190,36.8,37.33,36.99,35.88,33.5,30.55,29.76,30.47,-3.3,-6.78,-7.23,-5.41
W265000075340001,JAIPUR,Sanganer,Dahmi Kallan,75.57,26.83,1.1 E,90,364,47,46.1,46.8,47.46,51.7,47.6,53.9,54.9,4.71,1.5,7.1,7.44
W271100076040001,JAIPUR,"Jamwa
 Ramgarh",DATAL GURJRAN,76.07,27.18,1,57,429,30.66,31.1,29.2,29.7,36.2,35.7,35.6,35.7,5.54,4.6,6.4,6
W263402075451501,JAIPUR,Phagi,DAWACH,75.75,26.57,0.2,16,299,10.62,9.23,10.49,10.77,14.3,12.25,12.5,12.85,3.68,3.02,2.01,2.08
W263400075460001,JAIPUR,Phagi,DAWACHI,75.77,26.57,1,150,293,9.99,9.28,9.26,9.77,10.6,9.5,10.9,11,0.61,0.22,1.64,1.23
W264422076032501,JAIPUR,Bassi,Deogaon,76.06,26.74,1,105,378,46.74,45.1,46.6,47.3,51,45.9,44.9,45.05,4.26,0.8,-1.7,-2.25
W263145075074401,JAIPUR,Dudu,Dhandoli,75.13,26.53,0.5,200,360,4.74,3.66,4.8,2,3.15,2.4,3.25,3.5,-1.59,-1.26,-1.55,1.5
W271347075501301,JAIPUR,Shahpura,Dhawali,75.84,27.23,0.8,91,498,44.65,46.12,45.66,45.28,47.4,46.2,44.75,44.3,2.75,0.08,-0.91,-0.98
W271810075370001,JAIPUR,Govindgarh,DHODSAR,75.62,27.3,1,79,466,48.38,47.03,48.24,49.44,59,59.1,59.5,59.2,10.62,12.07,11.26,9.76
W262938075434801,JAIPUR,Phagi,Didwata,75.73,26.49,0.9,20,300,13.75,13.61,13.56,13.14,12.2,12.6,7.25,7.86,-1.55,-1.01,-6.31,-5.28
W262948075441801,JAIPUR,Phagi,Didwata Pz,75.74,26.5,1.2,70,300,17.96,16.17,14.68,15.32,11.6,34.3,8.46,7.36,-6.36,18.13,-6.22,-7.96
W265030075472001,JAIPUR,Jhotwara,DURGAPURA,75.79,26.84,1,100,388,58.72,57.58,57.71,58.16,60.1,56.7,61.1,61.65,1.38,-0.88,3.39,3.49
W264701075245001,JAIPUR,Dudu,Gadota,75.41,26.78,1,92,346,9.08,7.76,8.13,8.56,9.3,6.75,8.2,9.15,0.23,-1.01,0.07,0.59
W264551075590501,JAIPUR,Bassi,Gangarampur,75.98,26.76,0.25,108,346,50.47,45.01,50.08,51.63,57.55,49.85,52.9,53.55,7.08,4.84,2.83,1.93
W263012075244101,JAIPUR,Phagi,Ghatyali,75.41,26.5,0.3,14.5,310,10.77,8.3,8.46,9.27,10.8,4.45,7.2,5.87,0.03,-3.85,-1.26,-3.4
W263023075231701,JAIPUR,Phagi,Ghatyali Pz,75.39,26.51,1.2,63,325,8.47,5.33,5.62,6.4,9.7,3.45,5.58,3.65,1.24,-1.88,-0.04,-2.75
W264520075535801,JAIPUR,Sanganer,GONER,75.9,26.76,0.2,30,323,14.53,12.82,13.06,13.28,14.1,13.95,15,15.15,-0.43,1.13,1.94,1.87
W270038075453001,JAIPUR,Jhotwara,Harmara,75.76,27.01,0.3,125,471,81.35,80.43,82.03,81.72,82.9,86.8,85.9,86.95,1.55,6.37,3.87,5.23
W271332075314701,JAIPUR,Govindgarh,Hasteral,75.53,27.23,1,60,436,27.34,27.63,27.07,27.79,31,33,34.25,33.7,3.66,5.37,7.19,5.91
W265317075430101,JAIPUR,Jhotwara,Heerapura,75.72,26.89,1,106,421,76.07,73,75.23,75.66,78.55,78.6,79,79.6,2.48,5.6,3.77,3.94
W265641075525001,JAIPUR,Jhotwara,Jaisingpur Khor,75.88,26.94,0.5,200,344,48.75,46.96,37.16,36.93,41.7,44.6,44.8,44.4,-7.05,-2.36,7.64,7.47
W265232076123001,JAIPUR,Bassi,Jatwara Pz,76.21,26.88,1,53,330,26.51,24.54,27.65,27.91,0,29.15,28.9,28,,4.61,1.25,0.09
W265636075444001,JAIPUR,Jhotwara,JHOTWARAI,75.74,26.94,0.6,85.04,442,69.31,69.05,69.98,69.91,71.6,70.7,75.65,76.3,2.29,1.65,5.67,6.39
W265844075234101,JAIPUR,Sambher,Jobner,75.39,26.98,1,100,398,28.58,26.18,26.12,25.34,23.2,23,22.7,23,-5.38,-3.18,-3.42,-2.34
W271110075381601,JAIPUR,Govindgarh,Kaladera2,75.64,27.19,1,70,463,47.43,47.03,51.49,53.15,60.2,58.1,60.8,61.1,12.77,11.07,9.31,7.95
W265830075360001,JAIPUR,Jhotwara,KALWAD,75.6,26.98,0.9,100,401,44.85,44.99,45.33,44.08,53.2,53.6,53.7,54.1,8.35,8.61,8.37,10.02
W271102075341801,JAIPUR,Govindgarh,Kanarpura,75.57,27.18,1,94,430,57.59,51.83,51.72,51.55,55.2,55.15,56,55.7,-2.39,3.32,4.28,4.16
W264339075301601,JAIPUR,Phagi,Kansel,75.5,26.73,1.2,72,324,7.6,5.13,5.66,5.92,5.85,5.4,8.9,9.15,-1.75,0.27,3.24,3.23
W274125076084101,JAIPUR,Kotputli,Kansli,76.14,27.69,1.1,80,361,46.32,43.8,44.15,44.81,52.9,51,50.05,51.2,6.58,7.2,5.9,6.39
W265957076070001,JAIPUR,"Jamwa
 Ramgarh",Kharana,76.12,27,1,84,351,45.81,42.73,43.37,43.11,46.2,38.3,38.5,37.9,0.39,-4.43,-4.87,-5.21
W292503073541501,HANUMANGARH,Pilibanga,Rampura,73.9,29.42,0.75,25,174,9.64,9.57,9.51,10.03,13.9,0,0,0,4.26,-4.5,-4.56,-5.21
W292345073562701,HANUMANGARH,Pilibanga,RAMSARA,73.94,29.4,1.8,33.4,173,14.57,13.67,13.97,14.51,19.3,0,16.15,0,4.73,,2.18,
W291500074500001,HANUMANGARH,Nohar,RAMSARAI,74.83,29.25,0.5,24.5,197,18.43,16.93,17.04,17.74,21.55,17.38,18.3,18.3,3.12,0.45,1.26,0.56
W295100074270001,HANUMANGARH,Sangaria,RATANPURA,74.45,29.85,1.6,50.97,188,10.02,3.9,5.78,8.21,1,0.34,0,0,-9.02,-3.56,1.28,0.54
W291510074245001,HANUMANGARH,Rawatsar,RAWATSAR,74.41,29.25,1.4,28.78,187,1.53,1.49,1.8,1.54,3.53,1.73,1.7,1.8,2.01,0.24,-0.1,0.26
W291518074243501,HANUMANGARH,Rawatsar,Rawatsar Deep,74.41,29.26,1,127 21,179,6.91,6.6,7.03,7.14,6.8,0,0,7.17,-0.11,0.14,-0.2,0.03
W294200074291501,HANUMANGARH,Tibi,SALEWALI,74.49,29.7,1.5,25.51,188,10.94,6.15,8.49,9.71,13.7,14.04,13.95,14.21,2.76,7.89,5.46,4.51
W293730074190001,HANUMANGARH,Hanumangarh,SATIPURA,74.32,29.63,2.2,33.29,186,23.17,23.09,23.57,23.4,27.95,28.6,28.85,28.6,4.78,5.51,5.28,5.2
W271404075345701,JAIPUR,Govindgarh,Alisar,75.58,27.23,0.8,116,447,60.11,56.58,57.86,56.49,59.2,61.35,61.1,61.25,-0.91,4.77,3.24,4.76
W272231075494301,JAIPUR,Shahpura,Amarsar,75.83,27.38,1,120,524,61.68,59.4,61.46,62.08,64.1,62.4,0,63.15,2.42,3,,1.07
W265900075520001,JAIPUR,Jhotwara,AMBER,75.87,26.98,1.1,13.75,396,11.9,8.81,9.82,9.92,10.8,9.3,10.2,10.65,-1.1,0.49,0.38,0.73
W273005076012501,JAIPUR,Viratnagar,Antella,76.02,27.5,0,55.34,396.98,# DIV / 0 !,31.5,30.7,31.05,0,30.75,30.9,30.55,,-0.75,0.2,-0.5
W271615075303201,JAIPUR,Govindgarh,Astikalan,75.51,27.27,0.3,96,449,71.53,70.89,73.29,72.6,78.6,80.1,79.9,79.8,7.07,9.21,6.61,7.2
W265143075214601,JAIPUR,Dudu,Bandh Ke Balaji,75.36,26.86,1.2,90,337,41.12,39.05,39.37,39.34,45.3,44.3,51.5,51.8,4.18,5.25,12.13,12.46
W264600075380001,JAIPUR,Sanganer,Barkabalaji,75.63,26.77,1.1,110,352,65.76,61.95,62.55,65.78,72.6,63.9,66.9,67.7,6.84,1.95,4.35,1.92
W263348075414101,JAIPUR,Phagi,Bhankrota,75.69,26.56,1  0.7,80,400,71.83,66.07,64.23,67.14,66.6,56.1,59,59.35,-5.23,-9.97,-5.23,-7.79
W263720075364901,JAIPUR,Phagi,Bhojpura,75.61,26.62,1,13.2,308,4.63,5.84,4.35,3.99,4.6,3.8,6.25,6.8,-0.03,-2.04,1.9,2.81
W272158075571401,JAIPUR,Shahpura,Bidhara,75.95,27.37,1,119,447,91.37,87.56,86.37,87.09,84,83.1,81.75,83.05,-7.37,-4.46,-4.62,-4.04
W264445075511801,JAIPUR,Sanganer,Bilwa Pz,75.86,26.75,1,71.5,347,16.84,14.88,14.54,13.93,13.3,13.3,18.7,19.05,-3.54,-1.58,4.16,5.12
W265506075385501,JAIPUR,Jhotwara,Bindayaka,75.65,26.92,1,112,408,46.4,44.47,45.19,44.11,47.7,45.8,50.1,50.8,1.3,1.33,4.91,6.69
W264917075490301,JAIPUR,Jhotwara,Budhpura IMD,75.82,26.82,1,67,379,48.45,49.78,50.59,47.53,51.1,49.6,51.25,51.9,2.65,-0.18,0.66,4.37
W265230075485501,JAIPUR,Jhotwara,CGWB Campus Jaipur,75.82,26.88,1,71.2,444,55.64,53.86,53.14,52.52,0,0,48.8,48.35,,,-4.34,-4.17
W263600075570001,JAIPUR,Chaksu,CHAKSU,75.95,26.6,0.75,18.55,303,13.56,12.48,13.69,13.8,17.75,11.05,11.4,12.2,4.19,-1.43,-2.29,-1.6
W263620075304501,JAIPUR,Phagi,Chakwara,75.51,26.61,0.5,18,324,14.98,9.29,11.4,13.37,18.1,10.2,10.7,10.85,3.13,0.91,-0.7,-2.52
W263628075302601,JAIPUR,Phagi,Chakwara Pz,75.51,26.61,0.9,70,324,8.31,6.38,7.4,7.62,0,9.6,9.9,10.1,,3.22,2.5,2.48
W263022075393601,JAIPUR,Phagi,Chandama,75.66,26.51,0.85,17.5,305,9.04,5.38,5.78,7.5,10.55,4.85,4.24,4.32,1.51,-0.53,-1.54,-3.18
W263028075394601,JAIPUR,Phagi,Chandama Kallan,75.66,26.51,0.85,73,305,6.37,4.73,4.33,4.99,6.95,5.65,3.25,3.29,0.59,0.92,-1.08,-1.7
W264749075343801,JAIPUR,Sanganer,Chirota,75.58,26.8,1,30.5,352,19.96,17.04,16.77,18.77,29.8,28.2,29,30.1,9.84,11.16,12.23,11.33
W263817075420701,JAIPUR,Phagi,Chittora,75.7,26.64,0.55,32,323,24.38,18.83,20.87,22.85,21.05,9.75,11.75,12.2,-3.33,-9.08,-9.12,-10.65
W263827075415601,JAIPUR,Phagi,Chittora Pz,75.7,26.64,0.75,76,323,10.44,7.24,7.74,9.08,10.95,9.7,11.25,11.8,0.51,2.46,3.51,2.72
W263533075270001,JAIPUR,Phagi,Choru,75.45,26.59,0.8,24,328,13.6,8.02,9.87,10.25,9.1,1.9,1.8,2.2,-4.5,-6.12,-8.07,-8.05
W263547075270001,JAIPUR,Phagi,Choru Pz,75.45,26.6,0.95,70,328,19.67,13.81,13.93,17.23,20.5,13,14.25,14.55,0.83,-0.81,0.32,-2.68
W270314075243301,JAIPUR,Sambher,Kheerwa,75.41,27.05,1,120,410,57.42,55.99,55.43,57.04,57.7,41,41.9,42,0.28,-14.99,-13.53,-15.04
W271811076021801,JAIPUR,Shahpura,Khora Ladkhani,76.04,27.3,0.9,87,471,46.27,44.13,43.76,43.97,51,49.1,46.9,48.25,4.73,4.97,3.14,4.28
W263905075351101,JAIPUR,Phagi,Ladana,75.59,26.65,0.2,18,310,14.83,10.57,12.72,13.23,14.9,5.5,6.7,6.8,0.08,-5.07,-6.02,-6.43
W263853075351601,JAIPUR,Phagi,Ladana Pz,75.59,26.65,1.1,70,310,10.62,7.93,8.98,10.22,9.9,3.9,4.9,5.35,-0.72,-4.03,-4.08,-4.87
W265914075315101,JAIPUR,Jhotwara,Lalpura,75.53,26.99,1,120,411,84.9,81.75,84.14,84.9,87.7,84.7,89.2,89.4,2.8,2.95,5.06,4.5
W263326075303101,JAIPUR,Phagi,Lasariya,75.51,26.56,0.25,21,313,11.32,6.43,8.35,8.48,10.85,3.25,4.75,5.25,-0.47,-3.18,-3.6,-3.23
W264511076095701,JAIPUR,Bassi,Madhogarh,76.17,26.75,1.3,102,330,36.19,36.39,38.93,39.11,38.7,33.8,35.4,35.5,2.51,-2.59,-3.53,-3.61
W263438075392101,JAIPUR,Phagi,Madhorajpur,75.66,26.58,0.5,25.2,304,16.32,5.83,6.44,13.76,17.8,13.2,12.45,12.6,1.48,7.37,6.01,-1.16
W263434075382501,JAIPUR,Phagi,Madhorajpur Pz,75.64,26.58,1.3,72,308,10.67,9.24,7.81,8.17,8.55,12.2,11.9,12.4,-2.12,2.96,4.09,4.23
W264653075595201,JAIPUR,Bassi,Maharajpura,76,26.78,0.15,108,348,50.71,46.41,47.64,48.49,54.2,0,59.55,59.85,3.49,,11.91,11.36
W264145075410001,JAIPUR,Phagi,Majhi Renwal,75.68,26.7,1.3,40,331,24.73,21.83,25.18,29.74,33.8,23.55,26.5,26.65,9.07,1.72,1.32,-3.09
W264126075403201,JAIPUR,Phagi,Majhi Renwal Pz,75.68,26.69,1.15,72,330,25.01,23.51,23.62,25.5,29.1,23.7,25.55,25.75,4.09,0.19,1.93,0.25
W270010075583001,JAIPUR,"Jamwa
 Ramgarh",MALAWALA,75.98,27,0.9,56,392,49.46,47.88,47.22,47.27,0,48.95,49.2,49.8,,1.07,1.98,2.53
W263636075164001,JAIPUR,Dudu,MANGARWARA,75.28,26.61,0.92,16.17,328,4.24,2.62,2.38,2.64,2.43,0.58,1.08,1.73,-1.81,-2.04,-1.3,-0.91
W271819075571501,JAIPUR,Shahpura,Manohrpura_Pz,75.95,27.31,0.8,120,288.15,55.84,54,53.85,55.02,52.2,50.9,52.3,53.25,-3.64,-3.1,-1.55,-1.77
W265110075460001,JAIPUR,Jhotwara,MANSAROVAR GWD,75.77,26.85,1,79,396,38.52,37.66,37.25,37.44,36.35,37.2,42.1,42.35,-2.17,-0.46,4.85,4.91
W265112075460001,JAIPUR,Jhotwara,Mansarovar Cgwb,75.77,26.85,1,100,396,38.34,37.54,35.68,36.79,44.7,47.1,50.25,50.5,6.36,9.56,14.57,13.71
W264358075513101,JAIPUR,Sanganer,Mathurawala,75.86,26.73,0,108,381,9.53,8.48,8.25,8.7,8.9,7.1,9.6,9.75,-0.63,-1.38,1.35,1.05
W264838075284301,JAIPUR,Dudu,Mehla Pz,75.48,26.81,0.75,93,343,22.43,21.55,22.19,22.13,22.45,21.55,22.25,23.05,0.02,0,0.06,0.92
W265600075464501,JAIPUR,Jhotwara,MES JAIPUR,75.78,26.93,1,67.8,439,41.59,39.36,39.76,40.73,33.85,32.5,32.1,32.2,-7.74,-6.86,-7.66,-8.53
W264638075425801,JAIPUR,Sanganer,MOHANA,75.72,26.78,1,63.01,366,49.15,47.78,42.13,46.38,49.3,54.75,53.9,54.1,0.15,6.97,11.77,7.72
W263347075351301,JAIPUR,Phagi,Mohanpura ( Ranwa ),75.59,26.56,1,70,316,11.45,8.11,7.33,8.09,6.65,5.6,0,7.95,-4.8,-2.51,,-0.14
W265112076045301,JAIPUR,Bassi,Mohanpural,76.08,26.85,1,115,368.69,50.72,44.5,46.87,47.6,0,53.4,54.65,55.1,,8.9,7.78,7.5
W264100075214501,JAIPUR,Dudu,MOZMABAD,75.36,26.68,0.53,15,335,5.74,3.64,4.22,4.95,6.87,3.32,3.57,3.87,1.13,-0.32,-0.65,-1.08
W270300075450002,JAIPUR,Jhotwara,N.PUROHITAN,75.75,27.05,1,81,469,49.84,48.45,49.34,49.38,52.2,52.25,52.8,52.9,2.36,3.8,3.46,3.52
W265508075584101,JAIPUR,"Jamwa
 Ramgarh",Naila,75.98,26.92,0.4,116,376,63.23,60.35,61.1,61.89,56.8,55.3,55.7,56.2,-6.43,-5.05,-5.4,-5.69
W264735075111701,JAIPUR,Dudu,Naraina,75.19,26.79,0.6,21.5,375,7.96,6.31,5.71,6.48,8.1,1.8,2.9,3.4,0.14,-4.51,-2.81,-3.08
W264800075263601,JAIPUR,Dudu,NASNOTA,75.44,26.8,0.87,17,338,9.75,8.07,8.83,8.04,6.28,5.33,7.23,7.58,-3.47,-2.74,-1.6,-0.46
W263014075304901,JAIPUR,Phagi,Nemeda,75.51,26.5,1,18,307,12.07,7.98,10.43,11.65,12.1,5.33,6.1,2.4,0.03,-2.65,-4.33,-9.25
W263044075310301,JAIPUR,Phagi,Nemeda Pz,75.52,26.51,1.1,76,301,8.59,6.75,6.53,7.59,8.1,11.5,4.05,4.62,-0.49,4.75,-2.48,-2.97
W271632075435501,JAIPUR,Govindgarh,Niwana,75.73,27.28,0.6,95,485,63.86,62.35,63.74,60.87,65.4,59.7,60.3,60.5,1.54,-2.65,-3.44,-0.36
W265647076110501,JAIPUR,Bassi,Padasoli,76.18,26.95,0.9,70,341,34.24,33.45,36.32,32.36,34,31.7,31.95,32.15,-0.24,-1.75,-4.37,-0.21
W264410075193001,JAIPUR,Dudu,PALLUKHURD,75.33,26.74,0.75,19.25,354,7.9,5.71,6.06,6.41,10.6,9.75,9.95,10.25,2.7,4.05,3.89,3.85
W272041076065001,JAIPUR,Viratnagar,Palri,76.11,27.34,0,25,468.89,18.99,18.69,18.93,16.85,0,0,22.9,23.4,,,3.97,6.55
W274732076143101,JAIPUR,Kotputli,Paniyala,76.24,27.79,1.1,90,334,40.96,40.48,41.49,42.47,46.7,47.65,0,0,5.75,7.17,,
W263021075362401,JAIPUR,Phagi,Parun,75.61,26.51,0.3,14,303,9.03,7.17,6.81,8.17,5.9,5.06,2.35,1.59,-3.13,-2.11,-4.46,-6.58
W263044075360701,JAIPUR,Phagi,Parun Pz,75.6,26.51,1.15,80,305,10.16,8.18,9.23,9.82,13.25,11.1,7.35,6.89,3.09,2.92,-1.88,-2.93
W265230075141702,JAIPUR,Sambher,Phulera,75.24,26.88,1,108,387,6.22,5.52,5.31,5.47,4.6,4,6.25,6.45,-1.62,-1.52,0.94,0.98
W273809076071901,JAIPUR,Kotputli,Raghunathpura_Pz,76.12,27.64,1,68.57,376,49.59,49.37,49.86,50.37,56.2,53.8,55.25,56.1,6.61,4.43,5.39,5.73
W270851076065501,JAIPUR,"Jamwa
 Ramgarh",Raiser,76.12,27.15,1.1,105,397,35.51,33.47,36.98,37.32,0,42.5,46,44.5,,9.03,9.03,7.18
W270533075451301,JAIPUR,Amer,Rajarampura,75.75,27.09,0.4,88,452,50.12,47.26,48.13,50.36,53.8,50.4,65.1,62.7,3.68,3.14,16.97,12.34
W273549076113201,JAIPUR,Kotputli,Rajnota,76.19,27.6,1.1,96,358,36.31,35.91,35,37.18,39,39,39.2,39,2.69,3.09,4.2,1.82
W270651076120901,JAIPUR,"Jamwa
 Ramgarh",RASALA,76.2,27.11,0.23,25,367,13.48,10.72,12.03,12.97,0,22.87,23.27,22.92,,12.15,11.24,9.95
W264649076103201,JAIPUR,Bassi,Rojwari,76.18,26.78,0.65,110,329,52.49,47.63,49.81,50.2,57.55,52.75,54.6,54.4,5.07,5.12,4.8,4.21
W265422075131201,JAIPUR,Sambher,Sambhar,75.22,26.91,0.9,20,373,11.38,10.88,11.5,10.94,10.05,9.35,11.85,12.1,-1.33,-1.53,0.36,1.16
W270619076052801,JAIPUR,"Jamwa
 Ramgarh",Samred Kalan,76.09,27.11,1,88,413,42.16,38.73,42.95,43.66,51.4,42.4,42.7,43,9.24,3.67,-0.25,-0.66
W274320076072701,JAIPUR,Kotputli,Sarundh,76.12,27.72,1,87,363,64.46,60.19,61.56,62.1,67.1,63.9,65.1,64.7,2.64,3.71,3.54,2.6
W264249075532501,JAIPUR,Chaksu,SHIVDASPURA,75.89,26.71,0.4,27.18,334,22.37,22.15,21.98,21.88,22.7,20.6,20.5,20.6,0.33,-1.55,-1.48,-1.28
W264730075090001,JAIPUR,Dudu,SIROHIKHURD,75.15,26.79,1.04,16,372,7.55,5.4,5.65,5.23,0,5.86,6.96,7.46,,0.46,1.31,2.23
W263645075512601,JAIPUR,Chaksu,THALLI,75.86,26.61,0.15,15.85,323,11.54,9.38,10.46,9.59,8.95,4.95,6.85,7.45,-2.59,4.43,-3.61,-2.14
W264223075300601,JAIPUR,Phagi,Tickel,75.5,26.71,0.2,19,322,13.3,6.53,7.46,12.39,8.25,3.4,4.7,4.8,-5.05,-3.13,-2.76,-7.59
W264020075303801,JAIPUR,Phagi,Tickel Pz,75.51,26.67,0.9,75,329,8.45,5.25,6.3,6.42,0,0,3.6,4,,,-2.7,-2.42
W271731075464001,JAIPUR,Govindgarh,TIGARIA,75.78,27.29,1,90,490,55.97,53.36,53.45,55.74,63,67.4,69.1,70.05,7.03,14.04,15.65,14.31
W263803075475801,JAIPUR,Chaksu,Tootoli,75.8,26.63,0,25,232.1,15.79,16.34,18.58,20.81,21.8,19,19.55,19.65,6.02,2.67,0.98,-1.16
W273100071500001,JAISALMER,Jaisalmer,AWAI,71.83,27.52,1.1,15,153,7.07,6.01,7.69,6.16,8.6,8.5,8.2,6.2,1.53,2.49,0.51,0.04
W270200070540002,JAISALMER,Jaisalmer,BAISHAKHI,70.9,27.03,1,59,162,22.85,23.09,23.65,23.1,21.3,21.83,22.1,0,-1.55,-1.26,-1.55,
W272900071470001,JAISALMER,Jaisalmer,BHADRIAS,71.78,27.48,1.4,18.1,159,9.01,8.87,8.88,9.09,10.2,10.15,10.1,10.5,1.19,1.28,1.22,1.41
W274313071585001,JAISALMER,Jaisalmer,Bhavanipura Deep,71.98,27.72,1,188,153,13.32,13.54,13.78,13.45,14.1,14.3,14.25,14.7,0.78,0.76,0.47,1.25
W274312071584601,JAISALMER,Jaisalmer,Bhavanipura Shallow,71.98,27.72,1,86,153,13.73,13.91,13.96,14.32,14.9,14.9,14.8,15.9,1.17,0.99,0.84,1.58
W271113070595002,JAISALMER,Jaisalmer,BOA,71,27.19,1.05,56.95,156,49.21,49.91,49.77,49.24,48.65,48.01,47.9,0,-0.56,-1.9,-1.87,
W265830071451001,JAISALMER,Sankra,CHACHA,71.75,26.98,1.09,26.06,225,14,12.86,13.97,14.27,15.31,14.21,14.23,15.61,1.31,1.35,0.26,1.34
W265800071213002,JAISALMER,Jaisalmer,Delasar,71.36,26.97,1,200,196,67.13,69.21,66.56,69.61,73.9,74.7,73.65,75.5,6.78,5.49,7.09,5.89
W271630070583002,JAISALMER,Jaisalmer,Deva PZ,70.98,27.28,0,100,145,29.17,29.04,28.97,28.95,28.6,28.8,28.6,30.8,-0.57,-0.24,-0.37,1.85
W265415071213001,JAISALMER,Jaisalmer,DHAISAR,71.36,26.9,0.95,63.75,217,61.08,60.98,61.45,61.61,60.95,61.45,61.35,61.95,-0.13,0.47,-0.1,0.34
W272910070185801,JAISALMER,Sam,GAMANEWALA,70.32,27.49,0.76,142.5,112,65.17,62.67,64.72,63.07,65.34,65.44,64.94,65.14,0.17,2.77,0.22,2.07
W263120072011101,JAISALMER,Sankra,GARHI CHAMPAWAT,72.02,26.52,0.5,200,225,17.8,17.49,17.88,17.7,18.7,18.7,18.7,20.6,0.9,1.21,0.82,2.9
W272708071274701,JAISALMER,Jaisalmer,GHANTIYALI,71.46,27.45,0.01,71.59,104,38.05,36.26,36.17,36.18,36.09,35.94,35.75,35.89,-1.96,-0.32,-0.42,-0.29
W271900070021501,JAISALMER,Sam,GOTARU,70.04,27.32,0.85,69.15,85,36.35,36.3,35.92,36.35,34.05,34.05,33.55,32.85,-2.3,-2.25,-2.37,-3.5
W264545071361501,JAISALMER,Sankra,GUDI KA TALA,71.6,26.76,1.05,12.95,285,5.35,3.17,3.83,4.82,6.35,6.27,5.45,8.35,1,3.1,1.62,3.53
W270000071031501,JAISALMER,Jaisalmer,HAMIRA,71.05,27,1.75,48.25,203,42.25,41.75,42.64,42.4,45.35,0,0,0,3.1,,,
W265630070543501,JAISALMER,Jaisalmer,JAISALMER,70.91,26.94,0.22,61.68,241,36.33,36.36,36.22,36.37,34.28,34.18,33.88,24.48,-2.05,-2.18,-2.34,-11.89
W273231071085401,JAISALMER,Jaisalmer,Jawahar Nagar Deep,71.15,27.54,1,193,117,25.9,23.92,16.95,23.02,22.5,22.1,21.7,19.9,-3.4,-1.82,4.75,-3.12
W273231071085402,JAISALMER,Jaisalmer,Jawahar Nagar Shallow,71.15,27.54,1,62,117,8.36,8.67,15.27,8.76,8.9,8.4,8.7,9.1,0.54,-0.27,-6.57,0.34
W273237071175001,JAISALMER,Jaisalmer,Jjw Deep,71.3,27.54,1,200,139,34.24,34.12,33.88,33.1,0,0,32.7,33.8,,,-1.18,0.7
W264820071541501,JAISALMER,Sankra,KALEWA,71.9,26.81,1,35,240,23.22,18.86,18.25,18.96,23.2,22.2,22.25,21.4,-0.01,3.34,4,2.44
W274300070193002,JAISALMER,Sam,Khariakua_DW,70.33,27.72,1,42,108,35.25,35.21,35.2,35.1,35.3,35.4,34.96,34.9,0.05,0.19,-0.24,-0.2
W263600070420001,JAISALMER,Sam,KHURI,70.7,26.6,1.9,16.7,217,9.07,8.89,9.06,9.02,9.6,10.62,9.35,10,0.53,1.73,0.29,0.98
W270736070303001,JAISALMER,Sam,KHUYIALA,70.51,27.13,0.3,25,181,18.83,19.09,18.33,18.6,20.8,21.1,20.62,20.7,1.97,2.01,2.29,2.1
W262900071163001,JAISALMER,Sam,Kodiyasar,71.28,26.48,1,200,272,106.82,106.88,107.15,107.64,108.8,108.8,108.7,109.7,1.98,1.93,1.55,2.06
W270422070332501,JAISALMER,Sam,KUCHERI,70.56,27.07,0.62,106.52,207,104.72,104.24,104.62,104.04,103.78,103.93,103.83,105.88,-0.94,-0.31,-0.79,1.84
W263707070291201,JAISALMER,Sam,KURIA,70.49,26.62,0.9,121.5,122,35.63,35.23,34.86,34.77,34.8,34.6,34.55,32,-0.83,-0.63,-0.31,-2.77
W264244071255701,JAISALMER,Sankra,LAKHASAR,71.43,26.71,0.7,45.09,291,39.56,39.08,39.95,38.87,38.6,38.44,38.45,38.8,-0.96,-0.64,-1.5,-0.07
W270440070483001,JAISALMER,Jaisalmer,LANELA,70.81,27.08,0.7,204,165,37.43,37.36,37.3,37.43,39,38.8,39.2,39.2,1.57,1.44,1.9,1.77
W265220072030001,JAISALMER,Sankra,LAWAN,72.05,26.87,1.2,40,245,19.7,19.51,16.62,17.11,23.7,22.1,16.9,17.2,4.01,2.6,0.28,0.09
W270900071460001,JAISALMER,Sankra,LOHARKI,71.77,27.15,1.46,80,231,68.79,68.62,69.28,69.9,72.04,72.04,72.04,71.74,3.25,3.42,2.76,1.84
W263724071341501,JAISALMER,Sankra,LUNA KALAN,71.57,26.62,1.2,21.8,299,11.97,11.67,11.91,11.8,14.7,14.76,14.5,15.2,2.73,3.09,2.59,3.41
W264445071301501,JAISALMER,Sankra,MADASAR,71.5,26.75,1.3,23.7,285,9.74,8.06,8.92,9.71,8.5,8.26,6.75,7.6,-1.24,0.2,-2.17,-2.11
W270252071535601,JAISALMER,Sankra,MAWA,71.9,27.05,0.5,200,217,22.94,22.58,22.9,22.85,0,23.3,23.25,0,,0.72,0.35,
W272914070212301,JAISALMER,Sam,Mayathiwala,70.36,27.49,1.2,70,116,64.92,64.75,64.74,64.95,65,65.05,64.7,64.9,0.08,0.3,-0.04,-0.05
W265445070500601,JAISALMER,Jaisalmer,MOOLSAGAR,70.84,26.91,1.5,20.5,235,14.92,14.93,14.93,15.05,15.6,15.65,15.6,15.9,0.68,0.72,0.67,0.85
W265400070503001,JAISALMER,Jaisalmer,Moolsagar_Pz,70.84,26.9,0.92,200,258,71.43,69.43,71.38,71.87,80.43,80.43,72.68,77.38,9,11,1.3,5.51
W273100071431501,JAISALMER,Jaisalmer,NACHNA,71.72,27.52,1.8,17.2,141,8.92,8.54,8.34,8.97,8.5,8,7.5,7.6,-0.42,-0.54,-0.84,-1.37
W274840070245501,JAISALMER,Sam,NATHU KA BERA,70.42,27.81,1,75,99,30.8,30.97,30.81,31.31,30.9,30.95,30.9,31.2,0.1,-0.02,0.09,-0.11
W273645072020001,JAISALMER,Jaisalmer,NEWEATA,72.03,27.61,1.15,31.13,169,21.38,21.27,21.42,21.46,0,0,0,22.35,,,,0.89
W262430071554001,JAISALMER,Sankra,PHALSUND,71.93,26.41,1.31,10,205,5.63,5.36,4.85,5.3,4.19,4.09,4.14,4.76,-1.44,-1.27,-0.71,-0.54
W262300070281601,JAISALMER,Sam,PHULIA,70.47,26.38,0.8,78.51,111,66.26,59.29,67.59,67.08,61.21,34.31,32.41,32.41,-5.04,-24.98,-35.18,-34.67
W265514071553101,JAISALMER,Sankra,POKARAN,71.93,26.92,0.5,200,265,22.93,26.1,22.25,21.55,17,17.4,16.65,16.2,-5.93,-8.7,-5.6,-5.35
W265513072011001,JAISALMER,Sankra,"POKARAN ( POKARAN
 -II )",72.02,26.92,0.5,200,232,26.94,27.83,24.85,24.65,23.6,23.15,23.1,23.1,-3.34,-4.68,-1.75,-1.55
W263216071324101,JAISALMER,Sankra,RAJGARHI,71.54,26.54,0.1,27,308,19.26,18.53,18.77,18.82,21.3,23.4,23.3,0,2.04,4.87,4.53,
W272130070290001,JAISALMER,Sam,Ramgarh Ignp,70.48,27.36,1,300,150,43.3,42.3,43.03,42.57,42.65,42.45,42.4,42.6,-0.65,0.15,-0.63,0.03
W272130070300001,JAISALMER,Sam,Ramgarh2,70.5,27.36,1,200,148,50.1,47.41,47.6,48.73,42.65,47.15,47.2,47.7,-7.45,-0.26,-0.39,-1.03
W273340071044801,JAISALMER,Jaisalmer,Rd135,71.08,27.56,1,198.4,118,37.73,37.63,37.99,37.4,36.4,36.4,36.35,37.1,-1.33,-1.23,-1.64,-0.3
W273805070144001,JAISALMER,Sam,SADEWALA,70.24,27.63,1.2,44.8,118,41.29,41.21,41.57,41.26,40.9,40.9,40.68,41.5,-0.39,-0.31,-0.89,0.24
W264930070312401,JAISALMER,Sam,SAM1,70.52,26.83,0.7,29.7,176,9.98,7.33,8.1,8.25,0,2.4,3.3,4.55,,-4.93,-4.8,-3.7
W271424070393201,JAISALMER,Sam,Sanul,70.66,27.24,0.63,195,214,107.45,107.1,106.43,107.31,106.87,106.87,106.97,108.07,-0.57,-0.23,0.54,0.76
W265900071140001,JAISALMER,Jaisalmer,SANWALA,71.23,26.98,1.25,37.35,188,32.63,32.76,32.48,32.51,33.08,33.17,32.82,34.65,0.45,0.41,0.34,2.14
W264300071183001,JAISALMER,Sam,SANWATA,71.31,26.72,0.75,53.25,278,31.92,32.37,32.21,32.58,32.65,32.55,32.55,33.35,0.73,0.18,0.34,0.77
W272512071393201,JAISALMER,Jaisalmer,Sataya DW,71.66,27.42,0,22.6,163.48,19.72,19.5,19.5,19.62,20.6,20.3,20.28,22,0.88,0.8,0.78,2.38
W273457071092501,JAISALMER,Sam,Shastri Nagar,71.16,27.58,1,200.5,115,7.28,6.61,12.14,6.8,5.5,5.6,5.65,4.8,-1.78,-1.01,-6.49,-2
W273300071423001,JAISALMER,Jaisalmer,Shekhowala,71.71,27.55,1,186,137,11.11,11.39,11.43,10.75,10.8,10.73,10.7,11.6,-0.31,-0.66,-0.73,0.85
W270500071330001,JAISALMER,Sankra,SRIBHADRIA,71.55,27.08,1.35,46.65,196,40.37,40.06,40.13,40.24,40.05,39.05,39.35,40.05,-0.32,-1.01,-0.78,-0.19
W274800070220001,JAISALMER,Sam,TANOT,70.37,27.8,1.22,43.88,112,33.42,31.94,29.52,30.75,30.58,30.68,30.48,30.43,-2.84,-1.26,0.96,-0.32
W273530071040001,JAISALMER,Sam,Tuli Shallow,71.07,27.59,1,99,115,7.57,7.65,8.08,7.56,6.9,6.7,6.8,7.4,-0.67,-0.95,-1.28,-0.16
W251643072354501,JALORE,Jalore,Bhagli,72.6,25.28,0.6,79,191,51.37,49.6,52.49,53.5,51.5,50.9,50.4,52.95,0.13,1.3,-2.09,-0.55
W250045072154501,JALORE,Bhinmal,BHINMALI,72.26,25.01,0.5,17.95,145,4.26,3.23,3.12,3.4,4.6,4.8,3.7,3.7,0.34,1.58,0.58,0.3
W245803072120801,JALORE,Raniwara,DHANWARA,72.2,24.97,0.65,70,152,50.88,48.36,46.22,48.53,59.55,60.85,60.45,62.85,8.67,12.49,14.23,14.32
W245630071243001,JALORE,Chitalwana,DOONGRI,71.41,24.94,1.02,26,37,23.19,22.93,23.28,23.23,23.78,24.48,22.78,23.68,0.59,1.55,-0.5,0.45
W252025072513301,JALORE,Ahore,Gudha Balotan,72.86,25.34,1,85,202,43.3,41.93,41.99,42.22,43.7,52.5,44.4,44.8,0.4,10.58,2.41,2.58
W244508071494301,JALORE,Sanchore,Hadetar,71.83,24.75,1,155,66,33.03,33.02,32.6,33.04,35.82,36.92,41.82,36.92,2.79,3.9,9.23,3.88
W244604072070101,JALORE,Raniwara,Hirpura,72.12,24.77,1,66,192,54.14,53.85,51.07,50.47,52.9,57.2,59.1,61.55,-1.24,3.35,8.03,11.08